[
    {
        "iata": "GKA", 
        "longitude": "145.39293", 
        "latitude": "-6.075244", 
        "iso": "PG", 
        "name": "Goroka", 
        "continent": "OC", 
        "type": "airport", 
        "size": "medium", 
        "timezone": "10", 
        "icao": "AYGA", 
        "city": "Goroka", 
        "country": "Papua New Guinea"
    }, 
    {
        "iata": "MAG", 
        "longitude": "145.78784", 
        "latitude": "-5.210852", 
        "iso": "PG", 
        "name": "Madang", 
        "continent": "OC", 
        "type": "airport", 
        "size": "medium", 
        "timezone": "10", 
        "icao": "AYMD", 
        "city": "Madang", 
        "country": "Papua New Guinea"
    }, 
    {
        "iata": "HGU", 
        "longitude": "144.29738", 
        "latitude": "-5.828767", 
        "iso": "PG", 
        "name": "Mount Hagen", 
        "continent": "OC", 
        "type": "airport", 
        "size": "medium", 
        "timezone": "10", 
        "icao": "AYMH", 
        "city": "Mount Hagen", 
        "country": "Papua New Guinea"
    }, 
    {
        "iata": "LAE", 
        "longitude": "146.72757", 
        "latitude": "-6.562694", 
        "iso": "PG", 
        "name": "Nadzab", 
        "continent": "OC", 
        "type": "airport", 
        "size": "medium", 
        "timezone": "10", 
        "icao": "AYNZ", 
        "city": "Nadzab", 
        "country": "Papua New Guinea"
    }, 
    {
        "iata": "POM", 
        "longitude": "147.21446", 
        "latitude": "-9.444308", 
        "iso": "PG", 
        "name": "Port Moresby Jacksons Intl", 
        "continent": "OC", 
        "type": "airport", 
        "size": "large", 
        "timezone": "10", 
        "icao": "AYPY", 
        "city": "Port Moresby", 
        "country": "Papua New Guinea"
    }, 
    {
        "iata": "WWK", 
        "longitude": "143.66916", 
        "latitude": "-3.580034", 
        "iso": "PG", 
        "name": "Wewak Intl", 
        "continent": "OC", 
        "type": "airport", 
        "size": "medium", 
        "timezone": "10", 
        "icao": "AYWK", 
        "city": "Wewak", 
        "country": "Papua New Guinea"
    }, 
    {
        "iata": "UAK", 
        "longitude": "-45.316666", 
        "latitude": "61.166668", 
        "iso": "GL", 
        "name": "Narsarsuaq", 
        "continent": "NA", 
        "type": "airport", 
        "size": "medium", 
        "timezone": "-3", 
        "icao": "BGBW", 
        "city": "Narssarssuaq", 
        "country": "Greenland"
    }, 
    {
        "iata": "GOH", 
        "longitude": "-51.725", 
        "latitude": "64.181946", 
        "iso": "GL", 
        "name": "Nuuk", 
        "continent": "NA", 
        "type": "airport", 
        "size": "medium", 
        "timezone": "-3", 
        "icao": "BGGH", 
        "city": "Godthaab", 
        "country": "Greenland"
    }, 
    {
        "iata": "SFJ", 
        "longitude": "-50.719723", 
        "latitude": "67.01222", 
        "iso": "GL", 
        "name": "Sondre Stromfjord", 
        "continent": "NA", 
        "type": "airport", 
        "size": "medium", 
        "timezone": "-3", 
        "icao": "BGSF", 
        "city": "Sondrestrom", 
        "country": "Greenland"
    }, 
    {
        "iata": "THU", 
        "longitude": "-68.7", 
        "latitude": "76.53333", 
        "iso": "GL", 
        "name": "Thule Air Base", 
        "continent": "NA", 
        "type": "airport", 
        "size": "medium", 
        "timezone": "-4", 
        "icao": "BGTL", 
        "city": "Thule", 
        "country": "Greenland"
    }, 
    {
        "iata": "AEY", 
        "longitude": "-18.075068", 
        "latitude": "65.654564", 
        "iso": "IS", 
        "name": "Akureyri", 
        "continent": "EU", 
        "type": "airport", 
        "size": "medium", 
        "timezone": "0", 
        "icao": "BIAR", 
        "city": "Akureyri", 
        "country": "Iceland"
    }, 
    {
        "iata": "EGS", 
        "longitude": "-14.402778", 
        "latitude": "65.27778", 
        "iso": "IS", 
        "name": "Egilsstadir", 
        "continent": "EU", 
        "type": "airport", 
        "size": "medium", 
        "timezone": "0", 
        "icao": "BIEG", 
        "city": "Egilsstadir", 
        "country": "Iceland"
    }, 
    {
        "iata": "HFN", 
        "longitude": "-15.266667", 
        "latitude": "64.28333", 
        "iso": "IS", 
        "name": "Hornafjordur", 
        "continent": "EU", 
        "type": "airport", 
        "size": "medium", 
        "timezone": "0", 
        "icao": "BIHN", 
        "city": "Hofn", 
        "country": "Iceland"
    }, 
    {
        "iata": "HZK", 
        "longitude": "-17.427778", 
        "latitude": "65.95528", 
        "iso": "IS", 
        "name": "Husavik", 
        "continent": "EU", 
        "type": "airport", 
        "size": "medium", 
        "timezone": "0", 
        "icao": "BIHU", 
        "city": "Husavik", 
        "country": "Iceland"
    }, 
    {
        "iata": "IFJ", 
        "longitude": "-23.132778", 
        "latitude": "66.05972", 
        "iso": "IS", 
        "name": "Isafjordur", 
        "continent": "EU", 
        "type": "airport", 
        "size": "medium", 
        "timezone": "0", 
        "icao": "BIIS", 
        "city": "Isafjordur", 
        "country": "Iceland"
    }, 
    {
        "iata": "KEF", 
        "longitude": "-22.624283", 
        "latitude": "63.997765", 
        "iso": "IS", 
        "name": "Keflavik International Airport", 
        "continent": "EU", 
        "type": "airport", 
        "size": "large", 
        "timezone": "0", 
        "icao": "BIKF", 
        "city": "Keflavik", 
        "country": "Iceland"
    }, 
    {
        "iata": "PFJ", 
        "longitude": "-19.008333", 
        "latitude": "65.03333", 
        "iso": "IS", 
        "name": "Patreksfjordur", 
        "continent": "EU", 
        "type": "airport", 
        "size": "medium", 
        "timezone": "0", 
        "icao": "BIPA", 
        "city": "Patreksfjordur", 
        "country": "Iceland"
    }, 
    {
        "iata": "SIJ", 
        "longitude": "-18.933332", 
        "latitude": "66.166664", 
        "iso": "IS", 
        "name": "Siglufjordur", 
        "continent": "EU", 
        "type": "airport", 
        "size": "medium", 
        "timezone": "0", 
        "icao": "BISI", 
        "city": "Siglufjordur", 
        "country": "Iceland"
    }, 
    {
        "iata": "VEY", 
        "longitude": "-20.277779", 
        "latitude": "63.426388", 
        "iso": "IS", 
        "name": "Vestmannaeyjar", 
        "continent": "EU", 
        "type": "airport", 
        "size": "medium", 
        "timezone": "0", 
        "icao": "BIVM", 
        "city": "Vestmannaeyjar", 
        "country": "Iceland"
    }, 
    {
        "iata": "YAM", 
        "longitude": "-84.49995", 
        "latitude": "46.485302", 
        "iso": "CA", 
        "name": "Sault Ste Marie", 
        "continent": "NA", 
        "type": "airport", 
        "size": "medium", 
        "timezone": "-5", 
        "icao": "CYAM", 
        "city": "Sault Sainte Marie", 
        "country": "Canada"
    }, 
    {
        "iata": "YAV", 
        "longitude": "-123.3", 
        "latitude": "48.86667", 
        "iso": "CA", 
        "name": "Winnipeg St Andrews", 
        "continent": "NA", 
        "type": "airport", 
        "size": "medium", 
        "timezone": "-6", 
        "icao": "CYAV", 
        "city": "Winnipeg", 
        "country": "Canada"
    }, 
    {
        "iata": "YAW", 
        "longitude": "", 
        "latitude": "", 
        "iso": "CA", 
        "name": "Shearwater", 
        "continent": "NA", 
        "type": "heliport", 
        "size": "null", 
        "timezone": "-4", 
        "icao": "CYAW", 
        "city": "Halifax", 
        "country": "Canada"
    }, 
    {
        "iata": "YAY", 
        "longitude": "-55.583332", 
        "latitude": "51.36667", 
        "iso": "CA", 
        "name": "St Anthony", 
        "continent": "NA", 
        "type": "airport", 
        "size": "medium", 
        "timezone": "-4", 
        "icao": "CYAY", 
        "city": "St. Anthony", 
        "country": "Canada"
    }, 
    {
        "iata": "YAZ", 
        "longitude": "-125.77639", 
        "latitude": "49.076942", 
        "iso": "CA", 
        "name": "Tofino", 
        "continent": "NA", 
        "type": "airport", 
        "size": "medium", 
        "timezone": "-8", 
        "icao": "CYAZ", 
        "city": "Tofino", 
        "country": "Canada"
    }, 
    {
        "iata": "YBB", 
        "longitude": "-89.85", 
        "latitude": "68.88333", 
        "iso": "CA", 
        "name": "Kugaaruk", 
        "continent": "NA", 
        "type": "airport", 
        "size": "medium", 
        "timezone": "-6", 
        "icao": "CYBB", 
        "city": "Pelly Bay", 
        "country": "Canada"
    }, 
    {
        "iata": "YBC", 
        "longitude": "-68.26667", 
        "latitude": "49.2", 
        "iso": "CA", 
        "name": "Baie Comeau", 
        "continent": "NA", 
        "type": "airport", 
        "size": "medium", 
        "timezone": "-5", 
        "icao": "CYBC", 
        "city": "Baie Comeau", 
        "country": "Canada"
    }, 
    {
        "iata": "YBG", 
        "longitude": "-70.98861", 
        "latitude": "48.322224", 
        "iso": "CA", 
        "name": "Bagotville", 
        "continent": "NA", 
        "type": "airport", 
        "size": "medium", 
        "timezone": "-5", 
        "icao": "CYBG", 
        "city": "Bagotville", 
        "country": "Canada"
    }, 
    {
        "iata": "YBK", 
        "longitude": "-96.083336", 
        "latitude": "64.3", 
        "iso": "CA", 
        "name": "Baker Lake", 
        "continent": "NA", 
        "type": "airport", 
        "size": "medium", 
        "timezone": "-6", 
        "icao": "CYBK", 
        "city": "Baker Lake", 
        "country": "Canada"
    }, 
    {
        "iata": "YBL", 
        "longitude": "-125.26813", 
        "latitude": "49.951725", 
        "iso": "CA", 
        "name": "Campbell River", 
        "continent": "NA", 
        "type": "airport", 
        "size": "medium", 
        "timezone": "-8", 
        "icao": "CYBL", 
        "city": "Campbell River", 
        "country": "Canada"
    }, 
    {
        "iata": "YBR", 
        "longitude": "-99.94677", 
        "latitude": "49.908688", 
        "iso": "CA", 
        "name": "Brandon Muni", 
        "continent": "NA", 
        "type": "airport", 
        "size": "medium", 
        "timezone": "-6", 
        "icao": "CYBR", 
        "city": "Brandon", 
        "country": "Canada"
    }, 
    {
        "iata": "YCB", 
        "longitude": "-105.13333", 
        "latitude": "69.1", 
        "iso": "CA", 
        "name": "Cambridge Bay", 
        "continent": "NA", 
        "type": "airport", 
        "size": "medium", 
        "timezone": "-7", 
        "icao": "CYCB", 
        "city": "Cambridge Bay", 
        "country": "Canada"
    }, 
    {
        "iata": "YCD", 
        "longitude": "-123.86667", 
        "latitude": "49.05", 
        "iso": "CA", 
        "name": "Nanaimo", 
        "continent": "NA", 
        "type": "airport", 
        "size": "medium", 
        "timezone": "-8", 
        "icao": "CYCD", 
        "city": "Nanaimo", 
        "country": "Canada"
    }, 
    {
        "iata": "YCG", 
        "longitude": "-117.632225", 
        "latitude": "49.295555", 
        "iso": "CA", 
        "name": "Castlegar", 
        "continent": "NA", 
        "type": "airport", 
        "size": "medium", 
        "timezone": "-8", 
        "icao": "CYCG", 
        "city": "Castlegar", 
        "country": "Canada"
    }, 
    {
        "iata": "YCH", 
        "longitude": "-65.44744", 
        "latitude": "47.014008", 
        "iso": "CA", 
        "name": "Miramichi", 
        "continent": "NA", 
        "type": "airport", 
        "size": "medium", 
        "timezone": "-4", 
        "icao": "CYCH", 
        "city": "Chatham", 
        "country": "Canada"
    }, 
    {
        "iata": "YCL", 
        "longitude": "-66.32881", 
        "latitude": "47.99093", 
        "iso": "CA", 
        "name": "Charlo", 
        "continent": "NA", 
        "type": "airport", 
        "size": "medium", 
        "timezone": "-4", 
        "icao": "CYCL", 
        "city": "Charlo", 
        "country": "Canada"
    }, 
    {
        "iata": "YCO", 
        "longitude": "-115.083336", 
        "latitude": "67.833336", 
        "iso": "CA", 
        "name": "Kugluktuk", 
        "continent": "NA", 
        "type": "airport", 
        "size": "medium", 
        "timezone": "-7", 
        "icao": "CYCO", 
        "city": "Coppermine", 
        "country": "Canada"
    }, 
    {
        "iata": "YCY", 
        "longitude": "-68.5", 
        "latitude": "70.416664", 
        "iso": "CA", 
        "name": "Clyde River", 
        "continent": "NA", 
        "type": "airport", 
        "size": "medium", 
        "timezone": "-5", 
        "icao": "CYCY", 
        "city": "Clyde River", 
        "country": "Canada"
    }, 
    {
        "iata": "YZS", 
        "longitude": "-83.36667", 
        "latitude": "64.2", 
        "iso": "CA", 
        "name": "Fairmont Hot Springs", 
        "continent": "NA", 
        "type": "airport", 
        "size": "medium", 
        "timezone": "-7", 
        "icao": "CYCZ", 
        "city": "Coral Harbour", 
        "country": "Canada"
    }, 
    {
        "iata": "YDA", 
        "longitude": "-139.12083", 
        "latitude": "64.041664", 
        "iso": "CA", 
        "name": "Dawson City", 
        "continent": "NA", 
        "type": "airport", 
        "size": "medium", 
        "timezone": "-8", 
        "icao": "CYDA", 
        "city": "Dawson", 
        "country": "Canada"
    }, 
    {
        "iata": "YDB", 
        "longitude": "-139.01666", 
        "latitude": "61.35", 
        "iso": "CA", 
        "name": "Burwash", 
        "continent": "NA", 
        "type": "airport", 
        "size": "medium", 
        "timezone": "-8", 
        "icao": "CYDB", 
        "city": "Burwash", 
        "country": "Canada"
    }, 
    {
        "iata": "YDF", 
        "longitude": "-57.399727", 
        "latitude": "49.21027", 
        "iso": "CA", 
        "name": "Deer Lake", 
        "continent": "NA", 
        "type": "airport", 
        "size": "medium", 
        "timezone": "-4", 
        "icao": "CYDF", 
        "city": "Deer Lake", 
        "country": "Canada"
    }, 
    {
        "iata": "YDN", 
        "longitude": "-100.05", 
        "latitude": "51.1", 
        "iso": "CA", 
        "name": "Dauphin Barker", 
        "continent": "NA", 
        "type": "airport", 
        "size": "medium", 
        "timezone": "-6", 
        "icao": "CYDN", 
        "city": "Dauphin", 
        "country": "Canada"
    }, 
    {
        "iata": "YDQ", 
        "longitude": "-120.183334", 
        "latitude": "55.733334", 
        "iso": "CA", 
        "name": "Dawson Creek", 
        "continent": "NA", 
        "type": "airport", 
        "size": "medium", 
        "timezone": "-7", 
        "icao": "CYDQ", 
        "city": "Dawson Creek", 
        "country": "Canada"
    }, 
    {
        "iata": "YEG", 
        "longitude": "-113.584045", 
        "latitude": "53.307377", 
        "iso": "CA", 
        "name": "Edmonton Intl", 
        "continent": "NA", 
        "type": "airport", 
        "size": "large", 
        "timezone": "-7", 
        "icao": "CYEG", 
        "city": "Edmonton", 
        "country": "Canada"
    }, 
    {
        "iata": "YEK", 
        "longitude": "-94.05", 
        "latitude": "61.11667", 
        "iso": "CA", 
        "name": "Arviat", 
        "continent": "NA", 
        "type": "airport", 
        "size": "medium", 
        "timezone": "-6", 
        "icao": "CYEK", 
        "city": "Eskimo Point", 
        "country": "Canada"
    }, 
    {
        "iata": "YEN", 
        "longitude": "-102.96282", 
        "latitude": "49.207542", 
        "iso": "CA", 
        "name": "Estevan", 
        "continent": "NA", 
        "type": "airport", 
        "size": "medium", 
        "timezone": "-6", 
        "icao": "CYEN", 
        "city": "Estevan", 
        "country": "Canada"
    }, 
    {
        "iata": "YET", 
        "longitude": "-116.46667", 
        "latitude": "53.583332", 
        "iso": "CA", 
        "name": "Edson", 
        "continent": "NA", 
        "type": "airport", 
        "size": "medium", 
        "timezone": "-7", 
        "icao": "CYET", 
        "city": "Edson", 
        "country": "Canada"
    }, 
    {
        "iata": "YEU", 
        "longitude": "-85.933334", 
        "latitude": "80.0", 
        "iso": "CA", 
        "name": "Eureka", 
        "continent": "NA", 
        "type": "airport", 
        "size": "small", 
        "timezone": "-6", 
        "icao": "CYEU", 
        "city": "Eureka", 
        "country": "Canada"
    }, 
    {
        "iata": "YEV", 
        "longitude": "-133.49767", 
        "latitude": "68.30665", 
        "iso": "CA", 
        "name": "Inuvik Mike Zubko", 
        "continent": "NA", 
        "type": "airport", 
        "size": "medium", 
        "timezone": "-7", 
        "icao": "CYEV", 
        "city": "Inuvik", 
        "country": "Canada"
    }, 
    {
        "iata": "YFB", 
        "longitude": "-68.53658", 
        "latitude": "63.75175", 
        "iso": "CA", 
        "name": "Iqaluit", 
        "continent": "NA", 
        "type": "airport", 
        "size": "medium", 
        "timezone": "-5", 
        "icao": "CYFB", 
        "city": "Iqaluit", 
        "country": "Canada"
    }, 
    {
        "iata": "YFC", 
        "longitude": "-66.52978", 
        "latitude": "45.87316", 
        "iso": "CA", 
        "name": "Fredericton", 
        "continent": "NA", 
        "type": "airport", 
        "size": "medium", 
        "timezone": "-4", 
        "icao": "CYFC", 
        "city": "Fredericton", 
        "country": "Canada"
    }, 
    {
        "iata": "YFO", 
        "longitude": "-101.683334", 
        "latitude": "54.683334", 
        "iso": "CA", 
        "name": "Flin Flon", 
        "continent": "NA", 
        "type": "airport", 
        "size": "medium", 
        "timezone": "-6", 
        "icao": "CYFO", 
        "city": "Flin Flon", 
        "country": "Canada"
    }, 
    {
        "iata": "YFR", 
        "longitude": "-113.683334", 
        "latitude": "61.183334", 
        "iso": "CA", 
        "name": "Fort Resolution", 
        "continent": "NA", 
        "type": "airport", 
        "size": "medium", 
        "timezone": "-7", 
        "icao": "CYFR", 
        "city": "Fort Resolution", 
        "country": "Canada"
    }, 
    {
        "iata": "YFS", 
        "longitude": "-121.23333", 
        "latitude": "61.75", 
        "iso": "CA", 
        "name": "Fort Simpson", 
        "continent": "NA", 
        "type": "airport", 
        "size": "medium", 
        "timezone": "-7", 
        "icao": "CYFS", 
        "city": "Fort Simpson", 
        "country": "Canada"
    }, 
    {
        "iata": "YGK", 
        "longitude": "-76.59366", 
        "latitude": "44.219513", 
        "iso": "CA", 
        "name": "Kingston", 
        "continent": "NA", 
        "type": "airport", 
        "size": "medium", 
        "timezone": "-5", 
        "icao": "CYGK", 
        "city": "Kingston", 
        "country": "Canada"
    }, 
    {
        "iata": "YGL", 
        "longitude": "-77.70639", 
        "latitude": "53.629723", 
        "iso": "CA", 
        "name": "La Grande Riviere", 
        "continent": "NA", 
        "type": "airport", 
        "size": "medium", 
        "timezone": "-5", 
        "icao": "CYGL", 
        "city": "La Grande Riviere", 
        "country": "Canada"
    }, 
    {
        "iata": "YGP", 
        "longitude": "-64.48333", 
        "latitude": "48.766666", 
        "iso": "CA", 
        "name": "Gaspe", 
        "continent": "NA", 
        "type": "airport", 
        "size": "medium", 
        "timezone": "-5", 
        "icao": "CYGP", 
        "city": "Gaspe", 
        "country": "Canada"
    }, 
    {
        "iata": "YGQ", 
        "longitude": "-86.93593", 
        "latitude": "49.779892", 
        "iso": "CA", 
        "name": "Geraldton Greenstone Regional", 
        "continent": "NA", 
        "type": "airport", 
        "size": "medium", 
        "timezone": "-5", 
        "icao": "CYGQ", 
        "city": "Geraldton", 
        "country": "Canada"
    }, 
    {
        "iata": "YGR", 
        "longitude": "-61.9", 
        "latitude": "47.36667", 
        "iso": "CA", 
        "name": "Iles De La Madeleine", 
        "continent": "NA", 
        "type": "airport", 
        "size": "medium", 
        "timezone": "-4", 
        "icao": "CYGR", 
        "city": "Iles De La Madeleine", 
        "country": "Canada"
    }, 
    {
        "iata": "YHD", 
        "longitude": "-92.833336", 
        "latitude": "49.783333", 
        "iso": "CA", 
        "name": "Dryden Rgnl", 
        "continent": "NA", 
        "type": "airport", 
        "size": "medium", 
        "timezone": "-6", 
        "icao": "CYHD", 
        "city": "Dryden", 
        "country": "Canada"
    }, 
    {
        "iata": "YHI", 
        "longitude": "-117.71667", 
        "latitude": "70.71667", 
        "iso": "CA", 
        "name": "Ulukhaktok Holman", 
        "continent": "NA", 
        "type": "airport", 
        "size": "medium", 
        "timezone": "-7", 
        "icao": "CYHI", 
        "city": "Holman Island", 
        "country": "Canada"
    }, 
    {
        "iata": "YHK", 
        "longitude": "-95.95", 
        "latitude": "68.63333", 
        "iso": "CA", 
        "name": "Gjoa Haven", 
        "continent": "NA", 
        "type": "airport", 
        "size": "medium", 
        "timezone": "-6", 
        "icao": "CYHK", 
        "city": "Gjoa Haven", 
        "country": "Canada"
    }, 
    {
        "iata": "YHM", 
        "longitude": "-79.92631", 
        "latitude": "43.16138", 
        "iso": "CA", 
        "name": "Hamilton", 
        "continent": "NA", 
        "type": "airport", 
        "size": "medium", 
        "timezone": "-5", 
        "icao": "CYHM", 
        "city": "Hamilton", 
        "country": "Canada"
    }, 
    {
        "iata": "YHU", 
        "longitude": "-73.6", 
        "latitude": "45.5", 
        "iso": "CA", 
        "name": "St Hubert", 
        "continent": "NA", 
        "type": "airport", 
        "size": "medium", 
        "timezone": "-5", 
        "icao": "CYHU", 
        "city": "Montreal", 
        "country": "Canada"
    }, 
    {
        "iata": "YHY", 
        "longitude": "-115.778336", 
        "latitude": "60.845554", 
        "iso": "CA", 
        "name": "Hay River", 
        "continent": "NA", 
        "type": "airport", 
        "size": "medium", 
        "timezone": "-7", 
        "icao": "CYHY", 
        "city": "Hay River", 
        "country": "Canada"
    }, 
    {
        "iata": "YHZ", 
        "longitude": "-63.51425", 
        "latitude": "44.88496", 
        "iso": "CA", 
        "name": "Halifax Intl", 
        "continent": "NA", 
        "type": "airport", 
        "size": "large", 
        "timezone": "-4", 
        "icao": "CYHZ", 
        "city": "Halifax", 
        "country": "Canada"
    }, 
    {
        "iata": "YIB", 
        "longitude": "-91.61667", 
        "latitude": "48.75", 
        "iso": "CA", 
        "name": "Atikokan Muni", 
        "continent": "NA", 
        "type": "airport", 
        "size": "medium", 
        "timezone": "-6", 
        "icao": "CYIB", 
        "city": "Atikokan", 
        "country": "Canada"
    }, 
    {
        "iata": "YIO", 
        "longitude": "-78.0", 
        "latitude": "72.683334", 
        "iso": "CA", 
        "name": "Pond Inlet", 
        "continent": "NA", 
        "type": "airport", 
        "size": "medium", 
        "timezone": "-5", 
        "icao": "CYIO", 
        "city": "Pond Inlet", 
        "country": "Canada"
    }, 
    {
        "iata": "YJN", 
        "longitude": "-73.333336", 
        "latitude": "45.333332", 
        "iso": "CA", 
        "name": "St Jean", 
        "continent": "NA", 
        "type": "airport", 
        "size": "medium", 
        "timezone": "-5", 
        "icao": "CYJN", 
        "city": "St. Jean", 
        "country": "Canada"
    }, 
    {
        "iata": "YJT", 
        "longitude": "-58.55", 
        "latitude": "48.533333", 
        "iso": "CA", 
        "name": "Stephenville", 
        "continent": "NA", 
        "type": "airport", 
        "size": "medium", 
        "timezone": "-4", 
        "icao": "CYJT", 
        "city": "Stephenville", 
        "country": "Canada"
    }, 
    {
        "iata": "YKA", 
        "longitude": "-120.442024", 
        "latitude": "50.70545", 
        "iso": "CA", 
        "name": "Kamloops", 
        "continent": "NA", 
        "type": "airport", 
        "size": "medium", 
        "timezone": "-8", 
        "icao": "CYKA", 
        "city": "Kamloops", 
        "country": "Canada"
    }, 
    {
        "iata": "YKF", 
        "longitude": "-80.385056", 
        "latitude": "43.458977", 
        "iso": "CA", 
        "name": "Waterloo", 
        "continent": "NA", 
        "type": "airport", 
        "size": "medium", 
        "timezone": "-5", 
        "icao": "CYKF", 
        "city": "Waterloo", 
        "country": "Canada"
    }, 
    {
        "iata": "YKL", 
        "longitude": "-64.816666", 
        "latitude": "54.783333", 
        "iso": "CA", 
        "name": "Schefferville", 
        "continent": "NA", 
        "type": "airport", 
        "size": "medium", 
        "timezone": "-4", 
        "icao": "CYKL", 
        "city": "Schefferville", 
        "country": "Canada"
    }, 
    {
        "iata": "YKY", 
        "longitude": "-109.17811", 
        "latitude": "51.517605", 
        "iso": "CA", 
        "name": "Kindersley", 
        "continent": "NA", 
        "type": "airport", 
        "size": "medium", 
        "timezone": "-6", 
        "icao": "CYKY", 
        "city": "Kindersley", 
        "country": "Canada"
    }, 
    {
        "iata": "YKZ", 
        "longitude": "-79.36774", 
        "latitude": "43.86131", 
        "iso": "CA", 
        "name": "Buttonville Muni", 
        "continent": "NA", 
        "type": "airport", 
        "size": "medium", 
        "timezone": "-5", 
        "icao": "CYKZ", 
        "city": "Toronto", 
        "country": "Canada"
    }, 
    {
        "iata": "YLD", 
        "longitude": "-83.352776", 
        "latitude": "47.819443", 
        "iso": "CA", 
        "name": "Chapleau", 
        "continent": "NA", 
        "type": "airport", 
        "size": "medium", 
        "timezone": "-5", 
        "icao": "CYLD", 
        "city": "Chapleau", 
        "country": "Canada"
    }, 
    {
        "iata": "YLJ", 
        "longitude": "-108.666664", 
        "latitude": "54.5", 
        "iso": "CA", 
        "name": "Meadow Lake", 
        "continent": "NA", 
        "type": "airport", 
        "size": "medium", 
        "timezone": "-6", 
        "icao": "CYLJ", 
        "city": "Meadow Lake", 
        "country": "Canada"
    }, 
    {
        "iata": "YLL", 
        "longitude": "-110.072716", 
        "latitude": "53.31297", 
        "iso": "CA", 
        "name": "Lloydminster", 
        "continent": "NA", 
        "type": "airport", 
        "size": "medium", 
        "timezone": "-6", 
        "icao": "CYLL", 
        "city": "Lloydminster", 
        "country": "Canada"
    }, 
    {
        "iata": "YLT", 
        "longitude": "-62.283333", 
        "latitude": "82.51667", 
        "iso": "CA", 
        "name": "Alert", 
        "continent": "NA", 
        "type": "airport", 
        "size": "medium", 
        "timezone": "-5", 
        "icao": "CYLT", 
        "city": "Alert", 
        "country": "Canada"
    }, 
    {
        "iata": "YLW", 
        "longitude": "-119.38139", 
        "latitude": "49.95154", 
        "iso": "CA", 
        "name": "Kelowna", 
        "continent": "NA", 
        "type": "airport", 
        "size": "medium", 
        "timezone": "-8", 
        "icao": "CYLW", 
        "city": "Kelowna", 
        "country": "Canada"
    }, 
    {
        "iata": "YMA", 
        "longitude": "-135.87361", 
        "latitude": "63.61639", 
        "iso": "CA", 
        "name": "Mayo", 
        "continent": "NA", 
        "type": "airport", 
        "size": "medium", 
        "timezone": "-8", 
        "icao": "CYMA", 
        "city": "Mayo", 
        "country": "Canada"
    }, 
    {
        "iata": "YMJ", 
        "longitude": "-105.53333", 
        "latitude": "50.38333", 
        "iso": "CA", 
        "name": "Moose Jaw Air Vice Marshal C M Mcewen", 
        "continent": "NA", 
        "type": "airport", 
        "size": "medium", 
        "timezone": "-6", 
        "icao": "CYMJ", 
        "city": "Moose Jaw", 
        "country": "Canada"
    }, 
    {
        "iata": "YMM", 
        "longitude": "-111.22395", 
        "latitude": "56.65659", 
        "iso": "CA", 
        "name": "Fort Mcmurray", 
        "continent": "NA", 
        "type": "airport", 
        "size": "medium", 
        "timezone": "-7", 
        "icao": "CYMM", 
        "city": "Fort Mcmurray", 
        "country": "Canada"
    }, 
    {
        "iata": "YMO", 
        "longitude": "-80.604164", 
        "latitude": "51.29111", 
        "iso": "CA", 
        "name": "Moosonee", 
        "continent": "NA", 
        "type": "airport", 
        "size": "medium", 
        "timezone": "-5", 
        "icao": "CYMO", 
        "city": "Moosonee", 
        "country": "Canada"
    }, 
    {
        "iata": "YMX", 
        "longitude": "-74.03", 
        "latitude": "45.666668", 
        "iso": "CA", 
        "name": "Montreal Intl Mirabel", 
        "continent": "NA", 
        "type": "airport", 
        "size": "medium", 
        "timezone": "-5", 
        "icao": "CYMX", 
        "city": "Montreal", 
        "country": "Canada"
    }, 
    {
        "iata": "YNA", 
        "longitude": "-61.8", 
        "latitude": "50.183334", 
        "iso": "CA", 
        "name": "Natashquan", 
        "continent": "NA", 
        "type": "airport", 
        "size": "medium", 
        "timezone": "-4", 
        "icao": "CYNA", 
        "city": "Natashquan", 
        "country": "Canada"
    }, 
    {
        "iata": "YND", 
        "longitude": "-75.56283", 
        "latitude": "45.52063", 
        "iso": "CA", 
        "name": "Gatineau", 
        "continent": "NA", 
        "type": "airport", 
        "size": "medium", 
        "timezone": "-5", 
        "icao": "CYND", 
        "city": "Gatineau", 
        "country": "Canada"
    }, 
    {
        "iata": "YNM", 
        "longitude": "-77.8", 
        "latitude": "49.75", 
        "iso": "CA", 
        "name": "Matagami", 
        "continent": "NA", 
        "type": "airport", 
        "size": "medium", 
        "timezone": "-5", 
        "icao": "CYNM", 
        "city": "Matagami", 
        "country": "Canada"
    }, 
    {
        "iata": "YOC", 
        "longitude": "-139.83333", 
        "latitude": "67.583336", 
        "iso": "CA", 
        "name": "Old Crow", 
        "continent": "NA", 
        "type": "airport", 
        "size": "medium", 
        "timezone": "-8", 
        "icao": "CYOC", 
        "city": "Old Crow", 
        "country": "Canada"
    }, 
    {
        "iata": "YOD", 
        "longitude": "-110.25", 
        "latitude": "54.466667", 
        "iso": "CA", 
        "name": "Cold Lake", 
        "continent": "NA", 
        "type": "airport", 
        "size": "medium", 
        "timezone": "-7", 
        "icao": "CYOD", 
        "city": "Cold Lake", 
        "country": "Canada"
    }, 
    {
        "iata": "YOJ", 
        "longitude": "-117.168335", 
        "latitude": "58.618332", 
        "iso": "CA", 
        "name": "High Level", 
        "continent": "NA", 
        "type": "airport", 
        "size": "medium", 
        "timezone": "-7", 
        "icao": "CYOJ", 
        "city": "High Level", 
        "country": "Canada"
    }, 
    {
        "iata": "YOW", 
        "longitude": "-75.672775", 
        "latitude": "45.32083", 
        "iso": "CA", 
        "name": "Ottawa Macdonald Cartier Intl", 
        "continent": "NA", 
        "type": "airport", 
        "size": "large", 
        "timezone": "-5", 
        "icao": "CYOW", 
        "city": "Ottawa", 
        "country": "Canada"
    }, 
    {
        "iata": "YPA", 
        "longitude": "-105.683334", 
        "latitude": "53.216667", 
        "iso": "CA", 
        "name": "Prince Albert Glass Field", 
        "continent": "NA", 
        "type": "airport", 
        "size": "medium", 
        "timezone": "-6", 
        "icao": "CYPA", 
        "city": "Prince Albert", 
        "country": "Canada"
    }, 
    {
        "iata": "YPE", 
        "longitude": "-117.44028", 
        "latitude": "56.22778", 
        "iso": "CA", 
        "name": "Peace River", 
        "continent": "NA", 
        "type": "airport", 
        "size": "medium", 
        "timezone": "-7", 
        "icao": "CYPE", 
        "city": "Peace River", 
        "country": "Canada"
    }, 
    {
        "iata": "YPG", 
        "longitude": "-98.3", 
        "latitude": "49.966667", 
        "iso": "CA", 
        "name": "Southport", 
        "continent": "NA", 
        "type": "airport", 
        "size": "medium", 
        "timezone": "-6", 
        "icao": "CYPG", 
        "city": "Portage-la-prairie", 
        "country": "Canada"
    }, 
    {
        "iata": "YPL", 
        "longitude": "-90.208336", 
        "latitude": "51.208332", 
        "iso": "CA", 
        "name": "Pickle Lake", 
        "continent": "NA", 
        "type": "airport", 
        "size": "medium", 
        "timezone": "-6", 
        "icao": "CYPL", 
        "city": "Pickle Lake", 
        "country": "Canada"
    }, 
    {
        "iata": "YPN", 
        "longitude": "-64.28831", 
        "latitude": "49.836533", 
        "iso": "CA", 
        "name": "Port Menier", 
        "continent": "NA", 
        "type": "airport", 
        "size": "medium", 
        "timezone": "-5", 
        "icao": "CYPN", 
        "city": "Port Menier", 
        "country": "Canada"
    }, 
    {
        "iata": "YPQ", 
        "longitude": "-78.316666", 
        "latitude": "44.3", 
        "iso": "CA", 
        "name": "Peterborough", 
        "continent": "NA", 
        "type": "airport", 
        "size": "medium", 
        "timezone": "-5", 
        "icao": "CYPQ", 
        "city": "Peterborough", 
        "country": "Canada"
    }, 
    {
        "iata": "YPR", 
        "longitude": "-130.44083", 
        "latitude": "54.287224", 
        "iso": "CA", 
        "name": "Prince Rupert", 
        "continent": "NA", 
        "type": "airport", 
        "size": "medium", 
        "timezone": "-8", 
        "icao": "CYPR", 
        "city": "Prince Pupert", 
        "country": "Canada"
    }, 
    {
        "iata": "YPY", 
        "longitude": "-111.11406", 
        "latitude": "58.76799", 
        "iso": "CA", 
        "name": "Fort Chipewyan", 
        "continent": "NA", 
        "type": "airport", 
        "size": "medium", 
        "timezone": "-7", 
        "icao": "CYPY", 
        "city": "Fort Chipewyan", 
        "country": "Canada"
    }, 
    {
        "iata": "YQA", 
        "longitude": "-79.3", 
        "latitude": "44.966667", 
        "iso": "CA", 
        "name": "Muskoka", 
        "continent": "NA", 
        "type": "airport", 
        "size": "medium", 
        "timezone": "-5", 
        "icao": "CYQA", 
        "city": "Muskoka", 
        "country": "Canada"
    }, 
    {
        "iata": "YQB", 
        "longitude": "-71.383385", 
        "latitude": "46.792038", 
        "iso": "CA", 
        "name": "Quebec Jean Lesage Intl", 
        "continent": "NA", 
        "type": "airport", 
        "size": "large", 
        "timezone": "-5", 
        "icao": "CYQB", 
        "city": "Quebec", 
        "country": "Canada"
    }, 
    {
        "iata": "YQF", 
        "longitude": "-113.89333", 
        "latitude": "52.176945", 
        "iso": "CA", 
        "name": "Red Deer Regional", 
        "continent": "NA", 
        "type": "airport", 
        "size": "medium", 
        "timezone": "-7", 
        "icao": "CYQF", 
        "city": "Red Deer Industrial", 
        "country": "Canada"
    }, 
    {
        "iata": "YQG", 
        "longitude": "-82.96389", 
        "latitude": "42.274166", 
        "iso": "CA", 
        "name": "Windsor", 
        "continent": "NA", 
        "type": "airport", 
        "size": "medium", 
        "timezone": "-5", 
        "icao": "CYQG", 
        "city": "Windsor", 
        "country": "Canada"
    }, 
    {
        "iata": "YQH", 
        "longitude": "-128.825", 
        "latitude": "60.12361", 
        "iso": "CA", 
        "name": "Watson Lake", 
        "continent": "NA", 
        "type": "airport", 
        "size": "medium", 
        "timezone": "-8", 
        "icao": "CYQH", 
        "city": "Watson Lake", 
        "country": "Canada"
    }, 
    {
        "iata": "YQK", 
        "longitude": "-94.35833", 
        "latitude": "49.7875", 
        "iso": "CA", 
        "name": "Kenora", 
        "continent": "NA", 
        "type": "airport", 
        "size": "medium", 
        "timezone": "-6", 
        "icao": "CYQK", 
        "city": "Kenora", 
        "country": "Canada"
    }, 
    {
        "iata": "YQL", 
        "longitude": "-112.791664", 
        "latitude": "49.631943", 
        "iso": "CA", 
        "name": "Lethbridge", 
        "continent": "NA", 
        "type": "airport", 
        "size": "medium", 
        "timezone": "-7", 
        "icao": "CYQL", 
        "city": "Lethbridge", 
        "country": "Canada"
    }, 
    {
        "iata": "YQM", 
        "longitude": "-64.68123", 
        "latitude": "46.104774", 
        "iso": "CA", 
        "name": "Greater Moncton Intl", 
        "continent": "NA", 
        "type": "airport", 
        "size": "medium", 
        "timezone": "-4", 
        "icao": "CYQM", 
        "city": "Moncton", 
        "country": "Canada"
    }, 
    {
        "iata": "YQQ", 
        "longitude": "-124.907814", 
        "latitude": "49.705864", 
        "iso": "CA", 
        "name": "Comox", 
        "continent": "NA", 
        "type": "airport", 
        "size": "medium", 
        "timezone": "-8", 
        "icao": "CYQQ", 
        "city": "Comox", 
        "country": "Canada"
    }, 
    {
        "iata": "YQR", 
        "longitude": "-104.65519", 
        "latitude": "50.433327", 
        "iso": "CA", 
        "name": "Regina Intl", 
        "continent": "NA", 
        "type": "airport", 
        "size": "medium", 
        "timezone": "-6", 
        "icao": "CYQR", 
        "city": "Regina", 
        "country": "Canada"
    }, 
    {
        "iata": "YQT", 
        "longitude": "-89.31167", 
        "latitude": "48.37184", 
        "iso": "CA", 
        "name": "Thunder Bay", 
        "continent": "NA", 
        "type": "airport", 
        "size": "medium", 
        "timezone": "-5", 
        "icao": "CYQT", 
        "city": "Thunder Bay", 
        "country": "Canada"
    }, 
    {
        "iata": "YQU", 
        "longitude": "-118.873604", 
        "latitude": "55.177074", 
        "iso": "CA", 
        "name": "Grande Prairie", 
        "continent": "NA", 
        "type": "airport", 
        "size": "medium", 
        "timezone": "-7", 
        "icao": "CYQU", 
        "city": "Grande Prairie", 
        "country": "Canada"
    }, 
    {
        "iata": "YQV", 
        "longitude": "-102.45935", 
        "latitude": "51.264095", 
        "iso": "CA", 
        "name": "Yorkton Muni", 
        "continent": "NA", 
        "type": "airport", 
        "size": "medium", 
        "timezone": "-6", 
        "icao": "CYQV", 
        "city": "Yorkton", 
        "country": "Canada"
    }, 
    {
        "iata": "YQW", 
        "longitude": "-108.25", 
        "latitude": "52.766666", 
        "iso": "CA", 
        "name": "North Battleford", 
        "continent": "NA", 
        "type": "airport", 
        "size": "medium", 
        "timezone": "-6", 
        "icao": "CYQW", 
        "city": "North Battleford", 
        "country": "Canada"
    }, 
    {
        "iata": "YQX", 
        "longitude": "-54.56333", 
        "latitude": "48.946667", 
        "iso": "CA", 
        "name": "Gander Intl", 
        "continent": "NA", 
        "type": "airport", 
        "size": "medium", 
        "timezone": "-4", 
        "icao": "CYQX", 
        "city": "Gander", 
        "country": "Canada"
    }, 
    {
        "iata": "YQY", 
        "longitude": "-60.05", 
        "latitude": "46.166668", 
        "iso": "CA", 
        "name": "Sydney", 
        "continent": "NA", 
        "type": "airport", 
        "size": "medium", 
        "timezone": "-4", 
        "icao": "CYQY", 
        "city": "Sydney", 
        "country": "Canada"
    }, 
    {
        "iata": "YQZ", 
        "longitude": "-122.50972", 
        "latitude": "53.02667", 
        "iso": "CA", 
        "name": "Quesnel", 
        "continent": "NA", 
        "type": "airport", 
        "size": "medium", 
        "timezone": "-8", 
        "icao": "CYQZ", 
        "city": "Quesnel", 
        "country": "Canada"
    }, 
    {
        "iata": "YRB", 
        "longitude": "-94.96667", 
        "latitude": "74.71667", 
        "iso": "CA", 
        "name": "Resolute Bay", 
        "continent": "NA", 
        "type": "airport", 
        "size": "medium", 
        "timezone": "-6", 
        "icao": "CYRB", 
        "city": "Resolute", 
        "country": "Canada"
    }, 
    {
        "iata": "YRI", 
        "longitude": "-69.53333", 
        "latitude": "47.833332", 
        "iso": "CA", 
        "name": "Riviere Du Loup", 
        "continent": "NA", 
        "type": "airport", 
        "size": "medium", 
        "timezone": "-5", 
        "icao": "CYRI", 
        "city": "Riviere Du Loup", 
        "country": "Canada"
    }, 
    {
        "iata": "YRJ", 
        "longitude": "-72.26733", 
        "latitude": "48.522343", 
        "iso": "CA", 
        "name": "Roberval", 
        "continent": "NA", 
        "type": "airport", 
        "size": "medium", 
        "timezone": "-5", 
        "icao": "CYRJ", 
        "city": "Roberval", 
        "country": "Canada"
    }, 
    {
        "iata": "YRT", 
        "longitude": "-92.10019", 
        "latitude": "62.80998", 
        "iso": "CA", 
        "name": "Rankin Inlet", 
        "continent": "NA", 
        "type": "airport", 
        "size": "medium", 
        "timezone": "-6", 
        "icao": "CYRT", 
        "city": "Rankin Inlet", 
        "country": "Canada"
    }, 
    {
        "iata": "YSB", 
        "longitude": "-80.79592", 
        "latitude": "46.62296", 
        "iso": "CA", 
        "name": "Sudbury", 
        "continent": "NA", 
        "type": "airport", 
        "size": "medium", 
        "timezone": "-5", 
        "icao": "CYSB", 
        "city": "Sudbury", 
        "country": "Canada"
    }, 
    {
        "iata": "YSC", 
        "longitude": "-71.9", 
        "latitude": "45.416668", 
        "iso": "CA", 
        "name": "Sherbrooke", 
        "continent": "NA", 
        "type": "airport", 
        "size": "medium", 
        "timezone": "-5", 
        "icao": "CYSC", 
        "city": "Sherbrooke", 
        "country": "Canada"
    }, 
    {
        "iata": "YSJ", 
        "longitude": "-65.8902", 
        "latitude": "45.32948", 
        "iso": "CA", 
        "name": "Saint John", 
        "continent": "NA", 
        "type": "airport", 
        "size": "medium", 
        "timezone": "-4", 
        "icao": "CYSJ", 
        "city": "St. John", 
        "country": "Canada"
    }, 
    {
        "iata": "YSM", 
        "longitude": "-111.96667", 
        "latitude": "60.016666", 
        "iso": "CA", 
        "name": "Fort Smith", 
        "continent": "NA", 
        "type": "airport", 
        "size": "medium", 
        "timezone": "-7", 
        "icao": "CYSM", 
        "city": "Fort Smith", 
        "country": "Canada"
    }, 
    {
        "iata": "YSR", 
        "longitude": "", 
        "latitude": "", 
        "iso": "CA", 
        "name": "Nanisivik", 
        "continent": "NA", 
        "type": "closed", 
        "size": "null", 
        "timezone": "-5", 
        "icao": "CYSR", 
        "city": "Nanisivik", 
        "country": "Canada"
    }, 
    {
        "iata": "YSU", 
        "longitude": "-57.983334", 
        "latitude": "49.0", 
        "iso": "CA", 
        "name": "Summerside", 
        "continent": "NA", 
        "type": "airport", 
        "size": "medium", 
        "timezone": "-4", 
        "icao": "CYSU", 
        "city": "Summerside", 
        "country": "Canada"
    }, 
    {
        "iata": "YSY", 
        "longitude": "-125.24104", 
        "latitude": "71.99145", 
        "iso": "CA", 
        "name": "Sachs Harbour", 
        "continent": "NA", 
        "type": "airport", 
        "size": "medium", 
        "timezone": "-7", 
        "icao": "CYSY", 
        "city": "Sachs Harbour", 
        "country": "Canada"
    }, 
    {
        "iata": "YTE", 
        "longitude": "-76.53333", 
        "latitude": "64.23333", 
        "iso": "CA", 
        "name": "Cape Dorset", 
        "continent": "NA", 
        "type": "airport", 
        "size": "medium", 
        "timezone": "-5", 
        "icao": "CYTE", 
        "city": "Cape Dorset", 
        "country": "Canada"
    }, 
    {
        "iata": "YTH", 
        "longitude": "-97.8605", 
        "latitude": "55.79753", 
        "iso": "CA", 
        "name": "Thompson", 
        "continent": "NA", 
        "type": "airport", 
        "size": "medium", 
        "timezone": "-6", 
        "icao": "CYTH", 
        "city": "Thompson", 
        "country": "Canada"
    }, 
    {
        "iata": "YTR", 
        "longitude": "-77.583336", 
        "latitude": "44.1", 
        "iso": "CA", 
        "name": "Trenton", 
        "continent": "NA", 
        "type": "airport", 
        "size": "medium", 
        "timezone": "-5", 
        "icao": "CYTR", 
        "city": "Trenton", 
        "country": "Canada"
    }, 
    {
        "iata": "YTS", 
        "longitude": "-81.37164", 
        "latitude": "48.566372", 
        "iso": "CA", 
        "name": "Timmins", 
        "continent": "NA", 
        "type": "airport", 
        "size": "medium", 
        "timezone": "-5", 
        "icao": "CYTS", 
        "city": "Timmins", 
        "country": "Canada"
    }, 
    {
        "iata": "YTZ", 
        "longitude": "-79.39585", 
        "latitude": "43.632023", 
        "iso": "CA", 
        "name": "City Centre", 
        "continent": "NA", 
        "type": "airport", 
        "size": "medium", 
        "timezone": "-5", 
        "icao": "CYTZ", 
        "city": "Toronto", 
        "country": "Canada"
    }, 
    {
        "iata": "YUB", 
        "longitude": "-133.025", 
        "latitude": "69.436386", 
        "iso": "CA", 
        "name": "Tuktoyaktuk", 
        "continent": "NA", 
        "type": "airport", 
        "size": "medium", 
        "timezone": "-7", 
        "icao": "CYUB", 
        "city": "Tuktoyaktuk", 
        "country": "Canada"
    }, 
    {
        "iata": "YUL", 
        "longitude": "-73.74991", 
        "latitude": "45.457714", 
        "iso": "CA", 
        "name": "Pierre Elliott Trudeau Intl", 
        "continent": "NA", 
        "type": "airport", 
        "size": "large", 
        "timezone": "-5", 
        "icao": "CYUL", 
        "city": "Montreal", 
        "country": "Canada"
    }, 
    {
        "iata": "YUT", 
        "longitude": "-86.25", 
        "latitude": "66.53333", 
        "iso": "CA", 
        "name": "Repulse Bay", 
        "continent": "NA", 
        "type": "airport", 
        "size": "medium", 
        "timezone": "-6", 
        "icao": "CYUT", 
        "city": "Repulse Bay", 
        "country": "Canada"
    }, 
    {
        "iata": "YUX", 
        "longitude": "-81.25", 
        "latitude": "68.78333", 
        "iso": "CA", 
        "name": "Hall Beach", 
        "continent": "NA", 
        "type": "airport", 
        "size": "medium", 
        "timezone": "-5", 
        "icao": "CYUX", 
        "city": "Hall Beach", 
        "country": "Canada"
    }, 
    {
        "iata": "YUY", 
        "longitude": "-78.83056", 
        "latitude": "48.205555", 
        "iso": "CA", 
        "name": "Rouyn Noranda", 
        "continent": "NA", 
        "type": "airport", 
        "size": "medium", 
        "timezone": "-5", 
        "icao": "CYUY", 
        "city": "Rouyn", 
        "country": "Canada"
    }, 
    {
        "iata": "YVC", 
        "longitude": "-105.26066", 
        "latitude": "55.15126", 
        "iso": "CA", 
        "name": "La Ronge", 
        "continent": "NA", 
        "type": "airport", 
        "size": "medium", 
        "timezone": "-6", 
        "icao": "CYVC", 
        "city": "La Ronge", 
        "country": "Canada"
    }, 
    {
        "iata": "YVM", 
        "longitude": "-63.833332", 
        "latitude": "67.583336", 
        "iso": "CA", 
        "name": "Qikiqtarjuaq", 
        "continent": "NA", 
        "type": "airport", 
        "size": "medium", 
        "timezone": "-5", 
        "icao": "CYVM", 
        "city": "Broughton Island", 
        "country": "Canada"
    }, 
    {
        "iata": "YVO", 
        "longitude": "-77.78858", 
        "latitude": "48.052605", 
        "iso": "CA", 
        "name": "Val D Or", 
        "continent": "NA", 
        "type": "airport", 
        "size": "medium", 
        "timezone": "-5", 
        "icao": "CYVO", 
        "city": "Val D'or", 
        "country": "Canada"
    }, 
    {
        "iata": "YVP", 
        "longitude": "-68.41798", 
        "latitude": "58.10024", 
        "iso": "CA", 
        "name": "Kuujjuaq", 
        "continent": "NA", 
        "type": "airport", 
        "size": "medium", 
        "timezone": "-5", 
        "icao": "CYVP", 
        "city": "Quujjuaq", 
        "country": "Canada"
    }, 
    {
        "iata": "YVQ", 
        "longitude": "-126.79337", 
        "latitude": "65.277855", 
        "iso": "CA", 
        "name": "Norman Wells", 
        "continent": "NA", 
        "type": "airport", 
        "size": "medium", 
        "timezone": "-7", 
        "icao": "CYVQ", 
        "city": "Norman Wells", 
        "country": "Canada"
    }, 
    {
        "iata": "YVR", 
        "longitude": "-123.17919", 
        "latitude": "49.1947", 
        "iso": "CA", 
        "name": "Vancouver Intl", 
        "continent": "NA", 
        "type": "airport", 
        "size": "large", 
        "timezone": "-8", 
        "icao": "CYVR", 
        "city": "Vancouver", 
        "country": "Canada"
    }, 
    {
        "iata": "YVT", 
        "longitude": "-108.46667", 
        "latitude": "55.86667", 
        "iso": "CA", 
        "name": "Buffalo Narrows", 
        "continent": "NA", 
        "type": "airport", 
        "size": "small", 
        "timezone": "-6", 
        "icao": "CYVT", 
        "city": "Buffalo Narrows", 
        "country": "Canada"
    }, 
    {
        "iata": "YVV", 
        "longitude": "-81.166664", 
        "latitude": "44.666668", 
        "iso": "CA", 
        "name": "Wiarton", 
        "continent": "NA", 
        "type": "airport", 
        "size": "medium", 
        "timezone": "-5", 
        "icao": "CYVV", 
        "city": "Wiarton", 
        "country": "Canada"
    }, 
    {
        "iata": "YWA", 
        "longitude": "-77.28333", 
        "latitude": "45.9", 
        "iso": "CA", 
        "name": "Petawawa", 
        "continent": "NA", 
        "type": "airport", 
        "size": "medium", 
        "timezone": "-5", 
        "icao": "CYWA", 
        "city": "Petawawa", 
        "country": "Canada"
    }, 
    {
        "iata": "YWG", 
        "longitude": "-97.23333", 
        "latitude": "49.9", 
        "iso": "CA", 
        "name": "Winnipeg Intl", 
        "continent": "NA", 
        "type": "airport", 
        "size": "large", 
        "timezone": "-6", 
        "icao": "CYWG", 
        "city": "Winnipeg", 
        "country": "Canada"
    }, 
    {
        "iata": "YWK", 
        "longitude": "-66.874", 
        "latitude": "52.926315", 
        "iso": "CA", 
        "name": "Wabush", 
        "continent": "NA", 
        "type": "airport", 
        "size": "medium", 
        "timezone": "-4", 
        "icao": "CYWK", 
        "city": "Wabush", 
        "country": "Canada"
    }, 
    {
        "iata": "YWL", 
        "longitude": "-122.04444", 
        "latitude": "52.184723", 
        "iso": "CA", 
        "name": "Williams Lake", 
        "continent": "NA", 
        "type": "airport", 
        "size": "medium", 
        "timezone": "-8", 
        "icao": "CYWL", 
        "city": "Williams Lake", 
        "country": "Canada"
    }, 
    {
        "iata": "YWY", 
        "longitude": "-123.438614", 
        "latitude": "63.210556", 
        "iso": "CA", 
        "name": "Wrigley", 
        "continent": "NA", 
        "type": "airport", 
        "size": "medium", 
        "timezone": "-7", 
        "icao": "CYWY", 
        "city": "Wrigley", 
        "country": "Canada"
    }, 
    {
        "iata": "YXC", 
        "longitude": "-115.787025", 
        "latitude": "49.61437", 
        "iso": "CA", 
        "name": "Canadian Rockies Intl", 
        "continent": "NA", 
        "type": "airport", 
        "size": "medium", 
        "timezone": "-7", 
        "icao": "CYXC", 
        "city": "Cranbrook", 
        "country": "Canada"
    }, 
    {
        "iata": "YXD", 
        "longitude": "-113.51667", 
        "latitude": "53.566666", 
        "iso": "CA", 
        "name": "Edmonton City Centre", 
        "continent": "NA", 
        "type": "airport", 
        "size": "medium", 
        "timezone": "-7", 
        "icao": "CYXD", 
        "city": "Edmonton", 
        "country": "Canada"
    }, 
    {
        "iata": "YXE", 
        "longitude": "-106.69037", 
        "latitude": "52.169704", 
        "iso": "CA", 
        "name": "Saskatoon J G Diefenbaker Intl", 
        "continent": "NA", 
        "type": "airport", 
        "size": "medium", 
        "timezone": "-6", 
        "icao": "CYXE", 
        "city": "Saskatoon", 
        "country": "Canada"
    }, 
    {
        "iata": "YXH", 
        "longitude": "-110.72083", 
        "latitude": "50.015835", 
        "iso": "CA", 
        "name": "Medicine Hat", 
        "continent": "NA", 
        "type": "airport", 
        "size": "medium", 
        "timezone": "-7", 
        "icao": "CYXH", 
        "city": "Medicine Hat", 
        "country": "Canada"
    }, 
    {
        "iata": "YXJ", 
        "longitude": "-120.73437", 
        "latitude": "56.247883", 
        "iso": "CA", 
        "name": "Fort St John", 
        "continent": "NA", 
        "type": "airport", 
        "size": "medium", 
        "timezone": "-8", 
        "icao": "CYXJ", 
        "city": "Fort Saint John", 
        "country": "Canada"
    }, 
    {
        "iata": "YXL", 
        "longitude": "-91.903", 
        "latitude": "50.115208", 
        "iso": "CA", 
        "name": "Sioux Lookout", 
        "continent": "NA", 
        "type": "airport", 
        "size": "medium", 
        "timezone": "-6", 
        "icao": "CYXL", 
        "city": "Sioux Lookout", 
        "country": "Canada"
    }, 
    {
        "iata": "YXP", 
        "longitude": "-65.73333", 
        "latitude": "66.13333", 
        "iso": "CA", 
        "name": "Pangnirtung", 
        "continent": "NA", 
        "type": "airport", 
        "size": "medium", 
        "timezone": "-5", 
        "icao": "CYXP", 
        "city": "Pangnirtung", 
        "country": "Canada"
    }, 
    {
        "iata": "YXR", 
        "longitude": "-79.851944", 
        "latitude": "47.697224", 
        "iso": "CA", 
        "name": "Timiskaming Rgnl", 
        "continent": "NA", 
        "type": "airport", 
        "size": "medium", 
        "timezone": "-5", 
        "icao": "CYXR", 
        "city": "Earlton", 
        "country": "Canada"
    }, 
    {
        "iata": "YXS", 
        "longitude": "-122.67396", 
        "latitude": "53.88381", 
        "iso": "CA", 
        "name": "Prince George", 
        "continent": "NA", 
        "type": "airport", 
        "size": "medium", 
        "timezone": "-8", 
        "icao": "CYXS", 
        "city": "Prince George", 
        "country": "Canada"
    }, 
    {
        "iata": "YXT", 
        "longitude": "-128.57445", 
        "latitude": "54.465557", 
        "iso": "CA", 
        "name": "Terrace", 
        "continent": "NA", 
        "type": "airport", 
        "size": "medium", 
        "timezone": "-8", 
        "icao": "CYXT", 
        "city": "Terrace", 
        "country": "Canada"
    }, 
    {
        "iata": "YXU", 
        "longitude": "-81.14965", 
        "latitude": "43.02802", 
        "iso": "CA", 
        "name": "London", 
        "continent": "NA", 
        "type": "airport", 
        "size": "large", 
        "timezone": "-5", 
        "icao": "CYXU", 
        "city": "London", 
        "country": "Canada"
    }, 
    {
        "iata": "YXX", 
        "longitude": "-122.361946", 
        "latitude": "49.025555", 
        "iso": "CA", 
        "name": "Abbotsford", 
        "continent": "NA", 
        "type": "airport", 
        "size": "medium", 
        "timezone": "-8", 
        "icao": "CYXX", 
        "city": "Abbotsford", 
        "country": "Canada"
    }, 
    {
        "iata": "YXY", 
        "longitude": "-135.06667", 
        "latitude": "60.716667", 
        "iso": "CA", 
        "name": "Whitehorse Intl", 
        "continent": "NA", 
        "type": "airport", 
        "size": "medium", 
        "timezone": "-8", 
        "icao": "CYXY", 
        "city": "Whitehorse", 
        "country": "Canada"
    }, 
    {
        "iata": "YYB", 
        "longitude": "-79.42725", 
        "latitude": "46.356823", 
        "iso": "CA", 
        "name": "North Bay", 
        "continent": "NA", 
        "type": "airport", 
        "size": "medium", 
        "timezone": "-5", 
        "icao": "CYYB", 
        "city": "North Bay", 
        "country": "Canada"
    }, 
    {
        "iata": "YYC", 
        "longitude": "-114.01055", 
        "latitude": "51.131393", 
        "iso": "CA", 
        "name": "Calgary Intl", 
        "continent": "NA", 
        "type": "airport", 
        "size": "large", 
        "timezone": "-7", 
        "icao": "CYYC", 
        "city": "Calgary", 
        "country": "Canada"
    }, 
    {
        "iata": "YYD", 
        "longitude": "-127.180275", 
        "latitude": "54.825558", 
        "iso": "CA", 
        "name": "Smithers", 
        "continent": "NA", 
        "type": "airport", 
        "size": "medium", 
        "timezone": "-8", 
        "icao": "CYYD", 
        "city": "Smithers", 
        "country": "Canada"
    }, 
    {
        "iata": "YYE", 
        "longitude": "-122.583336", 
        "latitude": "58.833332", 
        "iso": "CA", 
        "name": "Fort Nelson", 
        "continent": "NA", 
        "type": "airport", 
        "size": "medium", 
        "timezone": "-8", 
        "icao": "CYYE", 
        "city": "Fort Nelson", 
        "country": "Canada"
    }, 
    {
        "iata": "YYF", 
        "longitude": "-119.6", 
        "latitude": "49.46472", 
        "iso": "CA", 
        "name": "Penticton", 
        "continent": "NA", 
        "type": "airport", 
        "size": "medium", 
        "timezone": "-8", 
        "icao": "CYYF", 
        "city": "Penticton", 
        "country": "Canada"
    }, 
    {
        "iata": "YYG", 
        "longitude": "-63.131737", 
        "latitude": "46.285896", 
        "iso": "CA", 
        "name": "Charlottetown", 
        "continent": "NA", 
        "type": "airport", 
        "size": "medium", 
        "timezone": "-4", 
        "icao": "CYYG", 
        "city": "Charlottetown", 
        "country": "Canada"
    }, 
    {
        "iata": "YYH", 
        "longitude": "-93.51667", 
        "latitude": "69.53333", 
        "iso": "CA", 
        "name": "Taloyoak", 
        "continent": "NA", 
        "type": "airport", 
        "size": "medium", 
        "timezone": "-6", 
        "icao": "CYYH", 
        "city": "Spence Bay", 
        "country": "Canada"
    }, 
    {
        "iata": "YYJ", 
        "longitude": "-123.43096", 
        "latitude": "48.640266", 
        "iso": "CA", 
        "name": "Victoria Intl", 
        "continent": "NA", 
        "type": "airport", 
        "size": "large", 
        "timezone": "-8", 
        "icao": "CYYJ", 
        "city": "Victoria", 
        "country": "Canada"
    }, 
    {
        "iata": "YYL", 
        "longitude": "-101.066666", 
        "latitude": "56.86667", 
        "iso": "CA", 
        "name": "Lynn Lake", 
        "continent": "NA", 
        "type": "airport", 
        "size": "medium", 
        "timezone": "-6", 
        "icao": "CYYL", 
        "city": "Lynn Lake", 
        "country": "Canada"
    }, 
    {
        "iata": "YYN", 
        "longitude": "-107.833336", 
        "latitude": "50.283333", 
        "iso": "CA", 
        "name": "Swift Current", 
        "continent": "NA", 
        "type": "airport", 
        "size": "medium", 
        "timezone": "-6", 
        "icao": "CYYN", 
        "city": "Swift Current", 
        "country": "Canada"
    }, 
    {
        "iata": "YYQ", 
        "longitude": "-94.07449", 
        "latitude": "58.74819", 
        "iso": "CA", 
        "name": "Churchill", 
        "continent": "NA", 
        "type": "airport", 
        "size": "medium", 
        "timezone": "-6", 
        "icao": "CYYQ", 
        "city": "Churchill", 
        "country": "Canada"
    }, 
    {
        "iata": "YYR", 
        "longitude": "-60.4124", 
        "latitude": "53.313534", 
        "iso": "CA", 
        "name": "Goose Bay", 
        "continent": "NA", 
        "type": "airport", 
        "size": "medium", 
        "timezone": "-4", 
        "icao": "CYYR", 
        "city": "Goose Bay", 
        "country": "Canada"
    }, 
    {
        "iata": "YYT", 
        "longitude": "-52.74334", 
        "latitude": "47.61282", 
        "iso": "CA", 
        "name": "St Johns Intl", 
        "continent": "NA", 
        "type": "airport", 
        "size": "medium", 
        "timezone": "-3.5", 
        "icao": "CYYT", 
        "city": "St. John's", 
        "country": "Canada"
    }, 
    {
        "iata": "YYU", 
        "longitude": "-82.47083", 
        "latitude": "49.4125", 
        "iso": "CA", 
        "name": "Kapuskasing", 
        "continent": "NA", 
        "type": "airport", 
        "size": "medium", 
        "timezone": "-5", 
        "icao": "CYYU", 
        "city": "Kapuskasing", 
        "country": "Canada"
    }, 
    {
        "iata": "YYW", 
        "longitude": "-88.91173", 
        "latitude": "50.29431", 
        "iso": "CA", 
        "name": "Armstrong", 
        "continent": "NA", 
        "type": "airport", 
        "size": "medium", 
        "timezone": "-5", 
        "icao": "CYYW", 
        "city": "Armstrong", 
        "country": "Canada"
    }, 
    {
        "iata": "YYY", 
        "longitude": "-68.2", 
        "latitude": "48.6", 
        "iso": "CA", 
        "name": "Mont Joli", 
        "continent": "NA", 
        "type": "airport", 
        "size": "medium", 
        "timezone": "-5", 
        "icao": "CYYY", 
        "city": "Mont Joli", 
        "country": "Canada"
    }, 
    {
        "iata": "YYZ", 
        "longitude": "-79.61146", 
        "latitude": "43.681583", 
        "iso": "CA", 
        "name": "Lester B Pearson Intl", 
        "continent": "NA", 
        "type": "airport", 
        "size": "large", 
        "timezone": "-5", 
        "icao": "CYYZ", 
        "city": "Toronto", 
        "country": "Canada"
    }, 
    {
        "iata": "YZD", 
        "longitude": "-79.46555", 
        "latitude": "43.74278", 
        "iso": "CA", 
        "name": "Downsview", 
        "continent": "NA", 
        "type": "airport", 
        "size": "medium", 
        "timezone": "-5", 
        "icao": "CYZD", 
        "city": "Toronto", 
        "country": "Canada"
    }, 
    {
        "iata": "YZE", 
        "longitude": "-82.56778", 
        "latitude": "45.885277", 
        "iso": "CA", 
        "name": "Gore Bay Manitoulin", 
        "continent": "NA", 
        "type": "airport", 
        "size": "medium", 
        "timezone": "-5", 
        "icao": "CYZE", 
        "city": "Gore Bay", 
        "country": "Canada"
    }, 
    {
        "iata": "YZF", 
        "longitude": "-114.4375", 
        "latitude": "62.470867", 
        "iso": "CA", 
        "name": "Yellowknife", 
        "continent": "NA", 
        "type": "airport", 
        "size": "medium", 
        "timezone": "-7", 
        "icao": "CYZF", 
        "city": "Yellowknife", 
        "country": "Canada"
    }, 
    {
        "iata": "YZH", 
        "longitude": "-114.78333", 
        "latitude": "55.3", 
        "iso": "CA", 
        "name": "Slave Lake", 
        "continent": "NA", 
        "type": "airport", 
        "size": "medium", 
        "timezone": "-7", 
        "icao": "CYZH", 
        "city": "Slave Lake", 
        "country": "Canada"
    }, 
    {
        "iata": "YZP", 
        "longitude": "-131.81277", 
        "latitude": "53.254444", 
        "iso": "CA", 
        "name": "Sandspit", 
        "continent": "NA", 
        "type": "airport", 
        "size": "medium", 
        "timezone": "-8", 
        "icao": "CYZP", 
        "city": "Sandspit", 
        "country": "Canada"
    }, 
    {
        "iata": "YZR", 
        "longitude": "-82.31111", 
        "latitude": "42.997223", 
        "iso": "CA", 
        "name": "Chris Hadfield", 
        "continent": "NA", 
        "type": "airport", 
        "size": "medium", 
        "timezone": "-5", 
        "icao": "CYZR", 
        "city": "Sarnia", 
        "country": "Canada"
    }, 
    {
        "iata": "YZT", 
        "longitude": "-127.36389", 
        "latitude": "50.680557", 
        "iso": "CA", 
        "name": "Port Hardy", 
        "continent": "NA", 
        "type": "airport", 
        "size": "medium", 
        "timezone": "-8", 
        "icao": "CYZT", 
        "city": "Port Hardy", 
        "country": "Canada"
    }, 
    {
        "iata": "YZU", 
        "longitude": "-115.78333", 
        "latitude": "54.15", 
        "iso": "CA", 
        "name": "Whitecourt", 
        "continent": "NA", 
        "type": "airport", 
        "size": "medium", 
        "timezone": "-7", 
        "icao": "CYZU", 
        "city": "Whitecourt", 
        "country": "Canada"
    }, 
    {
        "iata": "YZV", 
        "longitude": "-66.26404", 
        "latitude": "50.21751", 
        "iso": "CA", 
        "name": "Sept Iles", 
        "continent": "NA", 
        "type": "airport", 
        "size": "medium", 
        "timezone": "-5", 
        "icao": "CYZV", 
        "city": "Sept-iles", 
        "country": "Canada"
    }, 
    {
        "iata": "YZW", 
        "longitude": "-132.71666", 
        "latitude": "60.166668", 
        "iso": "CA", 
        "name": "Teslin", 
        "continent": "NA", 
        "type": "airport", 
        "size": "medium", 
        "timezone": "-8", 
        "icao": "CYZW", 
        "city": "Teslin", 
        "country": "Canada"
    }, 
    {
        "iata": "YZX", 
        "longitude": "-118.666664", 
        "latitude": "49.166668", 
        "iso": "CA", 
        "name": "Greenwood", 
        "continent": "NA", 
        "type": "airport", 
        "size": "medium", 
        "timezone": "-4", 
        "icao": "CYZX", 
        "city": "Greenwood", 
        "country": "Canada"
    }, 
    {
        "iata": "ZFA", 
        "longitude": "-133.36667", 
        "latitude": "63.216667", 
        "iso": "CA", 
        "name": "Faro", 
        "continent": "NA", 
        "type": "airport", 
        "size": "medium", 
        "timezone": "-8", 
        "icao": "CZFA", 
        "city": "Faro", 
        "country": "Canada"
    }, 
    {
        "iata": "ZFM", 
        "longitude": "-134.95277", 
        "latitude": "67.477776", 
        "iso": "CA", 
        "name": "Fort Mcpherson", 
        "continent": "NA", 
        "type": "airport", 
        "size": "medium", 
        "timezone": "-7", 
        "icao": "CZFM", 
        "city": "Fort Mcpherson", 
        "country": "Canada"
    }, 
    {
        "iata": "BJA", 
        "longitude": "5.083333", 
        "latitude": "36.75", 
        "iso": "DZ", 
        "name": "Soummam", 
        "continent": "AF", 
        "type": "airport", 
        "size": "medium", 
        "timezone": "1", 
        "icao": "DAAE", 
        "city": "Bejaja", 
        "country": "Algeria"
    }, 
    {
        "iata": "ALG", 
        "longitude": "3.21167", 
        "latitude": "36.70058", 
        "iso": "DZ", 
        "name": "Houari Boumediene", 
        "continent": "AF", 
        "type": "airport", 
        "size": "large", 
        "timezone": "1", 
        "icao": "DAAG", 
        "city": "Algier", 
        "country": "Algeria"
    }, 
    {
        "iata": "DJG", 
        "longitude": "9.488889", 
        "latitude": "24.465279", 
        "iso": "DZ", 
        "name": "Tiska", 
        "continent": "AF", 
        "type": "airport", 
        "size": "medium", 
        "timezone": "1", 
        "icao": "DAAJ", 
        "city": "Djanet", 
        "country": "Algeria"
    }, 
    {
        "iata": "QFD", 
        "longitude": "", 
        "latitude": "", 
        "iso": "DZ", 
        "name": "Boufarik", 
        "continent": "AF", 
        "type": "airport", 
        "size": "medium", 
        "timezone": "1", 
        "icao": "DAAK", 
        "city": "Boufarik", 
        "country": "Algeria"
    }, 
    {
        "iata": "VVZ", 
        "longitude": "8.55", 
        "latitude": "26.533333", 
        "iso": "DZ", 
        "name": "Illizi Takhamalt", 
        "continent": "AF", 
        "type": "airport", 
        "size": "medium", 
        "timezone": "1", 
        "icao": "DAAP", 
        "city": "Illizi", 
        "country": "Algeria"
    }, 
    {
        "iata": "TMR", 
        "longitude": "5.459167", 
        "latitude": "22.814722", 
        "iso": "DZ", 
        "name": "Tamanrasset", 
        "continent": "AF", 
        "type": "airport", 
        "size": "medium", 
        "timezone": "1", 
        "icao": "DAAT", 
        "city": "Tamanrasset", 
        "country": "Algeria"
    }, 
    {
        "iata": "GJL", 
        "longitude": "5.883333", 
        "latitude": "36.8", 
        "iso": "DZ", 
        "name": "Jijel", 
        "continent": "AF", 
        "type": "airport", 
        "size": "medium", 
        "timezone": "1", 
        "icao": "DAAV", 
        "city": "Jijel", 
        "country": "Algeria"
    }, 
    {
        "iata": "AAE", 
        "longitude": "7.811857", 
        "latitude": "36.821392", 
        "iso": "DZ", 
        "name": "Annaba", 
        "continent": "AF", 
        "type": "airport", 
        "size": "medium", 
        "timezone": "1", 
        "icao": "DABB", 
        "city": "Annaba", 
        "country": "Algeria"
    }, 
    {
        "iata": "CZL", 
        "longitude": "6.618425", 
        "latitude": "36.286476", 
        "iso": "DZ", 
        "name": "Mohamed Boudiaf Intl", 
        "continent": "AF", 
        "type": "airport", 
        "size": "medium", 
        "timezone": "1", 
        "icao": "DABC", 
        "city": "Constantine", 
        "country": "Algeria"
    }, 
    {
        "iata": "TEE", 
        "longitude": "8.124067", 
        "latitude": "35.428593", 
        "iso": "DZ", 
        "name": "Cheikh Larbi Tebessi", 
        "continent": "AF", 
        "type": "airport", 
        "size": "medium", 
        "timezone": "1", 
        "icao": "DABS", 
        "city": "Tebessa", 
        "country": "Algeria"
    }, 
    {
        "iata": "HRM", 
        "longitude": "3.2", 
        "latitude": "33.166668", 
        "iso": "DZ", 
        "name": "Hassi R Mel", 
        "continent": "AF", 
        "type": "airport", 
        "size": "medium", 
        "timezone": "1", 
        "icao": "DAFH", 
        "city": "Tilrempt", 
        "country": "Algeria"
    }, 
    {
        "iata": "TID", 
        "longitude": "1.46946", 
        "latitude": "35.343273", 
        "iso": "DZ", 
        "name": "Bou Chekif", 
        "continent": "AF", 
        "type": "airport", 
        "size": "medium", 
        "timezone": "1", 
        "icao": "DAOB", 
        "city": "Tiaret", 
        "country": "Algeria"
    }, 
    {
        "iata": "TIN", 
        "longitude": "-8.163246", 
        "latitude": "27.701162", 
        "iso": "DZ", 
        "name": "Tindouf", 
        "continent": "AF", 
        "type": "airport", 
        "size": "medium", 
        "timezone": "1", 
        "icao": "DAOF", 
        "city": "Tindouf", 
        "country": "Algeria"
    }, 
    {
        "iata": "QAS", 
        "longitude": "", 
        "latitude": "", 
        "iso": "DZ", 
        "name": "Ech Cheliff", 
        "continent": "AF", 
        "type": "airport", 
        "size": "medium", 
        "timezone": "1", 
        "icao": "DAOI", 
        "city": "Ech-cheliff", 
        "country": "Algeria"
    }, 
    {
        "iata": "TAF", 
        "longitude": "-0.610556", 
        "latitude": "35.627777", 
        "iso": "DZ", 
        "name": "Tafaraoui", 
        "continent": "AF", 
        "type": "airport", 
        "size": "medium", 
        "timezone": "1", 
        "icao": "DAOL", 
        "city": "Oran", 
        "country": "Algeria"
    }, 
    {
        "iata": "TLM", 
        "longitude": "-1.45", 
        "latitude": "35.016666", 
        "iso": "DZ", 
        "name": "Zenata", 
        "continent": "AF", 
        "type": "airport", 
        "size": "medium", 
        "timezone": "1", 
        "icao": "DAON", 
        "city": "Tlemcen", 
        "country": "Algeria"
    }, 
    {
        "iata": "ORN", 
        "longitude": "-0.606108", 
        "latitude": "35.620018", 
        "iso": "DZ", 
        "name": "Es Senia", 
        "continent": "AF", 
        "type": "airport", 
        "size": "medium", 
        "timezone": "1", 
        "icao": "DAOO", 
        "city": "Oran", 
        "country": "Algeria"
    }, 
    {
        "iata": "MUW", 
        "longitude": "0.147669", 
        "latitude": "35.208534", 
        "iso": "DZ", 
        "name": "Ghriss", 
        "continent": "AF", 
        "type": "airport", 
        "size": "medium", 
        "timezone": "1", 
        "icao": "DAOV", 
        "city": "Ghriss", 
        "country": "Algeria"
    }, 
    {
        "iata": "AZR", 
        "longitude": "-0.283333", 
        "latitude": "27.883333", 
        "iso": "DZ", 
        "name": "Touat Cheikh Sidi Mohamed Belkebir", 
        "continent": "AF", 
        "type": "airport", 
        "size": "medium", 
        "timezone": "1", 
        "icao": "DAUA", 
        "city": "Adrar", 
        "country": "Algeria"
    }, 
    {
        "iata": "BSK", 
        "longitude": "5.738056", 
        "latitude": "34.79333", 
        "iso": "DZ", 
        "name": "Biskra", 
        "continent": "AF", 
        "type": "airport", 
        "size": "medium", 
        "timezone": "1", 
        "icao": "DAUB", 
        "city": "Biskra", 
        "country": "Algeria"
    }, 
    {
        "iata": "ELG", 
        "longitude": "2.864722", 
        "latitude": "30.5675", 
        "iso": "DZ", 
        "name": "El Golea", 
        "continent": "AF", 
        "type": "airport", 
        "size": "medium", 
        "timezone": "1", 
        "icao": "DAUE", 
        "city": "El Golea", 
        "country": "Algeria"
    }, 
    {
        "iata": "GHA", 
        "longitude": "3.800556", 
        "latitude": "32.38222", 
        "iso": "DZ", 
        "name": "Noumerat", 
        "continent": "AF", 
        "type": "airport", 
        "size": "medium", 
        "timezone": "1", 
        "icao": "DAUG", 
        "city": "Ghardaia", 
        "country": "Algeria"
    }, 
    {
        "iata": "HME", 
        "longitude": "6.145436", 
        "latitude": "31.675303", 
        "iso": "DZ", 
        "name": "Oued Irara", 
        "continent": "AF", 
        "type": "airport", 
        "size": "medium", 
        "timezone": "1", 
        "icao": "DAUH", 
        "city": "Hassi Messaoud", 
        "country": "Algeria"
    }, 
    {
        "iata": "INZ", 
        "longitude": "2.516667", 
        "latitude": "27.25", 
        "iso": "DZ", 
        "name": "In Salah", 
        "continent": "AF", 
        "type": "airport", 
        "size": "medium", 
        "timezone": "1", 
        "icao": "DAUI", 
        "city": "In Salah", 
        "country": "Algeria"
    }, 
    {
        "iata": "TGR", 
        "longitude": "6.089239", 
        "latitude": "33.066948", 
        "iso": "DZ", 
        "name": "Sidi Mahdi", 
        "continent": "AF", 
        "type": "airport", 
        "size": "medium", 
        "timezone": "1", 
        "icao": "DAUK", 
        "city": "Touggourt", 
        "country": "Algeria"
    }, 
    {
        "iata": "LOO", 
        "longitude": "2.934811", 
        "latitude": "33.76102", 
        "iso": "DZ", 
        "name": "Laghouat", 
        "continent": "AF", 
        "type": "airport", 
        "size": "medium", 
        "timezone": "1", 
        "icao": "DAUL", 
        "city": "Laghouat", 
        "country": "Algeria"
    }, 
    {
        "iata": "TMX", 
        "longitude": "0.284086", 
        "latitude": "29.24174", 
        "iso": "DZ", 
        "name": "Timimoun", 
        "continent": "AF", 
        "type": "airport", 
        "size": "medium", 
        "timezone": "1", 
        "icao": "DAUT", 
        "city": "Timimoun", 
        "country": "Algeria"
    }, 
    {
        "iata": "OGX", 
        "longitude": "5.4", 
        "latitude": "31.916668", 
        "iso": "DZ", 
        "name": "Ouargla", 
        "continent": "AF", 
        "type": "airport", 
        "size": "medium", 
        "timezone": "1", 
        "icao": "DAUU", 
        "city": "Ouargla", 
        "country": "Algeria"
    }, 
    {
        "iata": "IAM", 
        "longitude": "9.638056", 
        "latitude": "28.051111", 
        "iso": "DZ", 
        "name": "In Amenas", 
        "continent": "AF", 
        "type": "airport", 
        "size": "medium", 
        "timezone": "1", 
        "icao": "DAUZ", 
        "city": "Zarzaitine", 
        "country": "Algeria"
    }, 
    {
        "iata": "COO", 
        "longitude": "2.385271", 
        "latitude": "6.353097", 
        "iso": "BJ", 
        "name": "Cadjehoun", 
        "continent": "AF", 
        "type": "airport", 
        "size": "medium", 
        "timezone": "1", 
        "icao": "DBBB", 
        "city": "Cotonou", 
        "country": "Benin"
    }, 
    {
        "iata": "OUA", 
        "longitude": "-1.514283", 
        "latitude": "12.355019", 
        "iso": "BF", 
        "name": "Ouagadougou", 
        "continent": "AF", 
        "type": "airport", 
        "size": "medium", 
        "timezone": "0", 
        "icao": "DFFD", 
        "city": "Ouagadougou", 
        "country": "Burkina Faso"
    }, 
    {
        "iata": "BOY", 
        "longitude": "-4.324444", 
        "latitude": "11.163611", 
        "iso": "BF", 
        "name": "Bobo Dioulasso", 
        "continent": "AF", 
        "type": "airport", 
        "size": "medium", 
        "timezone": "0", 
        "icao": "DFOO", 
        "city": "Bobo-dioulasso", 
        "country": "Burkina Faso"
    }, 
    {
        "iata": "ACC", 
        "longitude": "-0.171769", 
        "latitude": "5.60737", 
        "iso": "GH", 
        "name": "Kotoka Intl", 
        "continent": "AF", 
        "type": "airport", 
        "size": "large", 
        "timezone": "0", 
        "icao": "DGAA", 
        "city": "Accra", 
        "country": "Ghana"
    }, 
    {
        "iata": "TML", 
        "longitude": "-0.876603", 
        "latitude": "9.409979", 
        "iso": "GH", 
        "name": "Tamale", 
        "continent": "AF", 
        "type": "airport", 
        "size": "medium", 
        "timezone": "0", 
        "icao": "DGLE", 
        "city": "Tamale", 
        "country": "Ghana"
    }, 
    {
        "iata": "NYI", 
        "longitude": "-2.329254", 
        "latitude": "7.360586", 
        "iso": "GH", 
        "name": "Sunyani", 
        "continent": "AF", 
        "type": "airport", 
        "size": "medium", 
        "timezone": "0", 
        "icao": "DGSN", 
        "city": "Sunyani", 
        "country": "Ghana"
    }, 
    {
        "iata": "TKD", 
        "longitude": "-1.773912", 
        "latitude": "34.892727", 
        "iso": "GH", 
        "name": "Takoradi", 
        "continent": "AF", 
        "type": "airport", 
        "size": "medium", 
        "timezone": "0", 
        "icao": "DGTK", 
        "city": "Takoradi", 
        "country": "Ghana"
    }, 
    {
        "iata": "ABJ", 
        "longitude": "-3.933015", 
        "latitude": "5.254879", 
        "iso": "CI", 
        "name": "Abidjan Felix Houphouet Boigny Intl", 
        "continent": "AF", 
        "type": "airport", 
        "size": "medium", 
        "timezone": "0", 
        "icao": "DIAP", 
        "city": "Abidjan", 
        "country": "Cote d'Ivoire"
    }, 
    {
        "iata": "BYK", 
        "longitude": "-5.069167", 
        "latitude": "7.739444", 
        "iso": "CI", 
        "name": "Bouake", 
        "continent": "AF", 
        "type": "airport", 
        "size": "medium", 
        "timezone": "0", 
        "icao": "DIBK", 
        "city": "Bouake", 
        "country": "Cote d'Ivoire"
    }, 
    {
        "iata": "DJO", 
        "longitude": "-6.466667", 
        "latitude": "6.866944", 
        "iso": "CI", 
        "name": "Daloa", 
        "continent": "AF", 
        "type": "airport", 
        "size": "medium", 
        "timezone": "0", 
        "icao": "DIDL", 
        "city": "Daloa", 
        "country": "Cote d'Ivoire"
    }, 
    {
        "iata": "HGO", 
        "longitude": "-5.616667", 
        "latitude": "9.413889", 
        "iso": "CI", 
        "name": "Korhogo", 
        "continent": "AF", 
        "type": "airport", 
        "size": "medium", 
        "timezone": "0", 
        "icao": "DIKO", 
        "city": "Korhogo", 
        "country": "Cote d'Ivoire"
    }, 
    {
        "iata": "MJC", 
        "longitude": "-7.528333", 
        "latitude": "7.381667", 
        "iso": "CI", 
        "name": "Man", 
        "continent": "AF", 
        "type": "airport", 
        "size": "medium", 
        "timezone": "0", 
        "icao": "DIMN", 
        "city": "Man", 
        "country": "Cote d'Ivoire"
    }, 
    {
        "iata": "SPY", 
        "longitude": "-6.626944", 
        "latitude": "4.730278", 
        "iso": "CI", 
        "name": "San Pedro", 
        "continent": "AF", 
        "type": "airport", 
        "size": "medium", 
        "timezone": "0", 
        "icao": "DISP", 
        "city": "San Pedro", 
        "country": "Cote d'Ivoire"
    }, 
    {
        "iata": "ASK", 
        "longitude": "-5.283333", 
        "latitude": "6.816667", 
        "iso": "CI", 
        "name": "Yamoussoukro", 
        "continent": "AF", 
        "type": "airport", 
        "size": "medium", 
        "timezone": "0", 
        "icao": "DIYO", 
        "city": "Yamoussoukro", 
        "country": "Cote d'Ivoire"
    }, 
    {
        "iata": "ABV", 
        "longitude": "7.270447", 
        "latitude": "9.004614", 
        "iso": "NG", 
        "name": "Nnamdi Azikiwe Intl", 
        "continent": "AF", 
        "type": "airport", 
        "size": "large", 
        "timezone": "1", 
        "icao": "DNAA", 
        "city": "Abuja", 
        "country": "Nigeria"
    }, 
    {
        "iata": "AKR", 
        "longitude": "5.083333", 
        "latitude": "7.25", 
        "iso": "NG", 
        "name": "Akure", 
        "continent": "AF", 
        "type": "airport", 
        "size": "medium", 
        "timezone": "1", 
        "icao": "DNAK", 
        "city": "Akure", 
        "country": "Nigeria"
    }, 
    {
        "iata": "BNI", 
        "longitude": "5.603863", 
        "latitude": "6.316943", 
        "iso": "NG", 
        "name": "Benin", 
        "continent": "AF", 
        "type": "airport", 
        "size": "medium", 
        "timezone": "1", 
        "icao": "DNBE", 
        "city": "Benin", 
        "country": "Nigeria"
    }, 
    {
        "iata": "CBQ", 
        "longitude": "8.347415", 
        "latitude": "4.96889", 
        "iso": "NG", 
        "name": "Calabar", 
        "continent": "AF", 
        "type": "airport", 
        "size": "medium", 
        "timezone": "1", 
        "icao": "DNCA", 
        "city": "Calabar", 
        "country": "Nigeria"
    }, 
    {
        "iata": "ENU", 
        "longitude": "7.56772", 
        "latitude": "6.472048", 
        "iso": "NG", 
        "name": "Enugu", 
        "continent": "AF", 
        "type": "airport", 
        "size": "medium", 
        "timezone": "1", 
        "icao": "DNEN", 
        "city": "Enugu", 
        "country": "Nigeria"
    }, 
    {
        "iata": "QUS", 
        "longitude": "", 
        "latitude": "", 
        "iso": "NG", 
        "name": "Gusau", 
        "continent": "AF", 
        "type": "airport", 
        "size": "medium", 
        "timezone": "1", 
        "icao": "DNGU", 
        "city": "Gusau", 
        "country": "Nigeria"
    }, 
    {
        "iata": "IBA", 
        "longitude": "3.976361", 
        "latitude": "7.360181", 
        "iso": "NG", 
        "name": "Ibadan", 
        "continent": "AF", 
        "type": "airport", 
        "size": "medium", 
        "timezone": "1", 
        "icao": "DNIB", 
        "city": "Ibadan", 
        "country": "Nigeria"
    }, 
    {
        "iata": "ILR", 
        "longitude": "4.533333", 
        "latitude": "8.5", 
        "iso": "NG", 
        "name": "Ilorin", 
        "continent": "AF", 
        "type": "airport", 
        "size": "medium", 
        "timezone": "1", 
        "icao": "DNIL", 
        "city": "Ilorin", 
        "country": "Nigeria"
    }, 
    {
        "iata": "JOS", 
        "longitude": "8.893056", 
        "latitude": "9.868056", 
        "iso": "NG", 
        "name": "Yakubu Gowon", 
        "continent": "AF", 
        "type": "airport", 
        "size": "medium", 
        "timezone": "1", 
        "icao": "DNJO", 
        "city": "Jos", 
        "country": "Nigeria"
    }, 
    {
        "iata": "KAD", 
        "longitude": "7.440278", 
        "latitude": "10.595833", 
        "iso": "NG", 
        "name": "Kaduna", 
        "continent": "AF", 
        "type": "airport", 
        "size": "medium", 
        "timezone": "1", 
        "icao": "DNKA", 
        "city": "Kaduna", 
        "country": "Nigeria"
    }, 
    {
        "iata": "KAN", 
        "longitude": "8.522271", 
        "latitude": "12.045549", 
        "iso": "NG", 
        "name": "Mallam Aminu Intl", 
        "continent": "AF", 
        "type": "airport", 
        "size": "medium", 
        "timezone": "1", 
        "icao": "DNKN", 
        "city": "Kano", 
        "country": "Nigeria"
    }, 
    {
        "iata": "MIU", 
        "longitude": "13.082928", 
        "latitude": "11.855487", 
        "iso": "NG", 
        "name": "Maiduguri", 
        "continent": "AF", 
        "type": "airport", 
        "size": "medium", 
        "timezone": "1", 
        "icao": "DNMA", 
        "city": "Maiduguri", 
        "country": "Nigeria"
    }, 
    {
        "iata": "MDI", 
        "longitude": "8.533333", 
        "latitude": "7.75", 
        "iso": "NG", 
        "name": "Makurdi", 
        "continent": "AF", 
        "type": "airport", 
        "size": "medium", 
        "timezone": "1", 
        "icao": "DNMK", 
        "city": "Makurdi", 
        "country": "Nigeria"
    }, 
    {
        "iata": "LOS", 
        "longitude": "3.321178", 
        "latitude": "6.577871", 
        "iso": "NG", 
        "name": "Murtala Muhammed", 
        "continent": "AF", 
        "type": "airport", 
        "size": "large", 
        "timezone": "1", 
        "icao": "DNMM", 
        "city": "Lagos", 
        "country": "Nigeria"
    }, 
    {
        "iata": "MXJ", 
        "longitude": "6.533333", 
        "latitude": "9.616667", 
        "iso": "NG", 
        "name": "Minna New", 
        "continent": "AF", 
        "type": "airport", 
        "size": "medium", 
        "timezone": "1", 
        "icao": "DNMN", 
        "city": "Minna", 
        "country": "Nigeria"
    }, 
    {
        "iata": "PHC", 
        "longitude": "6.9499", 
        "latitude": "5.006506", 
        "iso": "NG", 
        "name": "Port Harcourt Intl", 
        "continent": "AF", 
        "type": "airport", 
        "size": "medium", 
        "timezone": "1", 
        "icao": "DNPO", 
        "city": "Port Hartcourt", 
        "country": "Nigeria"
    }, 
    {
        "iata": "SKO", 
        "longitude": "5.242222", 
        "latitude": "13.006389", 
        "iso": "NG", 
        "name": "Sadiq Abubakar Iii Intl", 
        "continent": "AF", 
        "type": "airport", 
        "size": "medium", 
        "timezone": "1", 
        "icao": "DNSO", 
        "city": "Sokoto", 
        "country": "Nigeria"
    }, 
    {
        "iata": "YOL", 
        "longitude": "12.428114", 
        "latitude": "9.266729", 
        "iso": "NG", 
        "name": "Yola", 
        "continent": "AF", 
        "type": "airport", 
        "size": "medium", 
        "timezone": "1", 
        "icao": "DNYO", 
        "city": "Yola", 
        "country": "Nigeria"
    }, 
    {
        "iata": "ZAR", 
        "longitude": "7.666667", 
        "latitude": "11.0", 
        "iso": "NG", 
        "name": "Zaria", 
        "continent": "AF", 
        "type": "airport", 
        "size": "medium", 
        "timezone": "1", 
        "icao": "DNZA", 
        "city": "Zaria", 
        "country": "Nigeria"
    }, 
    {
        "iata": "MFQ", 
        "longitude": "7.125278", 
        "latitude": "13.5025", 
        "iso": "NE", 
        "name": "Maradi", 
        "continent": "AF", 
        "type": "airport", 
        "size": "medium", 
        "timezone": "1", 
        "icao": "DRRM", 
        "city": "Maradi", 
        "country": "Niger"
    }, 
    {
        "iata": "NIM", 
        "longitude": "2.177158", 
        "latitude": "13.476534", 
        "iso": "NE", 
        "name": "Diori Hamani", 
        "continent": "AF", 
        "type": "airport", 
        "size": "medium", 
        "timezone": "1", 
        "icao": "DRRN", 
        "city": "Niamey", 
        "country": "Niger"
    }, 
    {
        "iata": "THZ", 
        "longitude": "5.263889", 
        "latitude": "14.872778", 
        "iso": "NE", 
        "name": "Tahoua", 
        "continent": "AF", 
        "type": "airport", 
        "size": "medium", 
        "timezone": "1", 
        "icao": "DRRT", 
        "city": "Tahoua", 
        "country": "Niger"
    }, 
    {
        "iata": "AJY", 
        "longitude": "7.993056", 
        "latitude": "16.964167", 
        "iso": "NE", 
        "name": "Manu Dayak", 
        "continent": "AF", 
        "type": "airport", 
        "size": "medium", 
        "timezone": "1", 
        "icao": "DRZA", 
        "city": "Agadez", 
        "country": "Niger"
    }, 
    {
        "iata": "ZND", 
        "longitude": "8.983056", 
        "latitude": "13.779444", 
        "iso": "NE", 
        "name": "Zinder", 
        "continent": "AF", 
        "type": "airport", 
        "size": "medium", 
        "timezone": "1", 
        "icao": "DRZR", 
        "city": "Zinder", 
        "country": "Niger"
    }, 
    {
        "iata": "MIR", 
        "longitude": "10.753155", 
        "latitude": "35.76108", 
        "iso": "TN", 
        "name": "Habib Bourguiba Intl", 
        "continent": "AF", 
        "type": "airport", 
        "size": "medium", 
        "timezone": "0", 
        "icao": "DTMB", 
        "city": "Monastir", 
        "country": "Tunisia"
    }, 
    {
        "iata": "TUN", 
        "longitude": "10.21709", 
        "latitude": "36.847622", 
        "iso": "TN", 
        "name": "Carthage", 
        "continent": "AF", 
        "type": "airport", 
        "size": "large", 
        "timezone": "0", 
        "icao": "DTTA", 
        "city": "Tunis", 
        "country": "Tunisia"
    }, 
    {
        "iata": "GAF", 
        "longitude": "8.816667", 
        "latitude": "34.416668", 
        "iso": "TN", 
        "name": "Gafsa", 
        "continent": "AF", 
        "type": "airport", 
        "size": "medium", 
        "timezone": "0", 
        "icao": "DTTF", 
        "city": "Gafsa", 
        "country": "Tunisia"
    }, 
    {
        "iata": "GAE", 
        "longitude": "9.919377", 
        "latitude": "33.73569", 
        "iso": "TN", 
        "name": "Gabes", 
        "continent": "AF", 
        "type": "airport", 
        "size": "medium", 
        "timezone": "0", 
        "icao": "DTTG", 
        "city": "Gabes", 
        "country": "Tunisia"
    }, 
    {
        "iata": "DJE", 
        "longitude": "10.775145", 
        "latitude": "33.87118", 
        "iso": "TN", 
        "name": "Zarzis", 
        "continent": "AF", 
        "type": "airport", 
        "size": "medium", 
        "timezone": "0", 
        "icao": "DTTJ", 
        "city": "Djerba", 
        "country": "Tunisia"
    }, 
    {
        "iata": "EBM", 
        "longitude": "9.266667", 
        "latitude": "31.716667", 
        "iso": "TN", 
        "name": "El Borma", 
        "continent": "AF", 
        "type": "airport", 
        "size": "medium", 
        "timezone": "0", 
        "icao": "DTTR", 
        "city": "El Borma", 
        "country": "Tunisia"
    }, 
    {
        "iata": "SFA", 
        "longitude": "10.683333", 
        "latitude": "34.716667", 
        "iso": "TN", 
        "name": "Thyna", 
        "continent": "AF", 
        "type": "airport", 
        "size": "medium", 
        "timezone": "0", 
        "icao": "DTTX", 
        "city": "Sfax", 
        "country": "Tunisia"
    }, 
    {
        "iata": "TOE", 
        "longitude": "8.133333", 
        "latitude": "33.916668", 
        "iso": "TN", 
        "name": "Nefta", 
        "continent": "AF", 
        "type": "airport", 
        "size": "medium", 
        "timezone": "0", 
        "icao": "DTTZ", 
        "city": "Tozeur", 
        "country": "Tunisia"
    }, 
    {
        "iata": "LRL", 
        "longitude": "1.133333", 
        "latitude": "9.833333", 
        "iso": "TG", 
        "name": "Niamtougou International", 
        "continent": "AF", 
        "type": "airport", 
        "size": "medium", 
        "timezone": "1", 
        "icao": "DXNG", 
        "city": "Niatougou", 
        "country": "Togo"
    }, 
    {
        "iata": "LFW", 
        "longitude": "1.250347", 
        "latitude": "6.167103", 
        "iso": "TG", 
        "name": "Gnassingbe Eyadema Intl", 
        "continent": "AF", 
        "type": "airport", 
        "size": "medium", 
        "timezone": "1", 
        "icao": "DXXX", 
        "city": "Lome", 
        "country": "Togo"
    }, 
    {
        "iata": "ANR", 
        "longitude": "4.450672", 
        "latitude": "51.18916", 
        "iso": "BE", 
        "name": "Deurne", 
        "continent": "EU", 
        "type": "airport", 
        "size": "medium", 
        "timezone": "1", 
        "icao": "EBAW", 
        "city": "Antwerp", 
        "country": "Belgium"
    }, 
    {
        "iata": "BRU", 
        "longitude": "4.483602", 
        "latitude": "50.89717", 
        "iso": "BE", 
        "name": "Brussels Natl", 
        "continent": "EU", 
        "type": "airport", 
        "size": "large", 
        "timezone": "1", 
        "icao": "EBBR", 
        "city": "Brussels", 
        "country": "Belgium"
    }, 
    {
        "iata": "CRL", 
        "longitude": "4.451703", 
        "latitude": "50.456696", 
        "iso": "BE", 
        "name": "Brussels South", 
        "continent": "EU", 
        "type": "airport", 
        "size": "medium", 
        "timezone": "1", 
        "icao": "EBCI", 
        "city": "Charleroi", 
        "country": "Belgium"
    }, 
    {
        "iata": "LGG", 
        "longitude": "5.460149", 
        "latitude": "50.643333", 
        "iso": "BE", 
        "name": "Liege", 
        "continent": "EU", 
        "type": "airport", 
        "size": "large", 
        "timezone": "1", 
        "icao": "EBLG", 
        "city": "Liege", 
        "country": "Belgium"
    }, 
    {
        "iata": "OST", 
        "longitude": "2.863611", 
        "latitude": "51.199722", 
        "iso": "BE", 
        "name": "Oostende", 
        "continent": "EU", 
        "type": "airport", 
        "size": "medium", 
        "timezone": "1", 
        "icao": "EBOS", 
        "city": "Ostend", 
        "country": "Belgium"
    }, 
    {
        "iata": "BBJ", 
        "longitude": "6.516667", 
        "latitude": "49.966667", 
        "iso": "DE", 
        "name": "Bautzen", 
        "continent": "EU", 
        "type": "airport", 
        "size": "small", 
        "timezone": "1", 
        "icao": "EDAB", 
        "city": "Bautzen", 
        "country": "Germany"
    }, 
    {
        "iata": "AOC", 
        "longitude": "12.45", 
        "latitude": "50.983334", 
        "iso": "DE", 
        "name": "Altenburg Nobitz", 
        "continent": "EU", 
        "type": "airport", 
        "size": "medium", 
        "timezone": "1", 
        "icao": "EDAC", 
        "city": "Altenburg", 
        "country": "Germany"
    }, 
    {
        "iata": "BBH", 
        "longitude": "12.711667", 
        "latitude": "54.33972", 
        "iso": "DE", 
        "name": "Barth", 
        "continent": "EU", 
        "type": "airport", 
        "size": "small", 
        "timezone": "1", 
        "icao": "EDBH", 
        "city": "Barth", 
        "country": "Germany"
    }, 
    {
        "iata": "SXF", 
        "longitude": "13.521388", 
        "latitude": "52.370277", 
        "iso": "DE", 
        "name": "Schonefeld", 
        "continent": "EU", 
        "type": "airport", 
        "size": "large", 
        "timezone": "1", 
        "icao": "EDDB", 
        "city": "Berlin", 
        "country": "Germany"
    }, 
    {
        "iata": "DRS", 
        "longitude": "13.766082", 
        "latitude": "51.124332", 
        "iso": "DE", 
        "name": "Dresden", 
        "continent": "EU", 
        "type": "airport", 
        "size": "large", 
        "timezone": "1", 
        "icao": "EDDC", 
        "city": "Dresden", 
        "country": "Germany"
    }, 
    {
        "iata": "ERF", 
        "longitude": "10.961163", 
        "latitude": "50.974915", 
        "iso": "DE", 
        "name": "Erfurt", 
        "continent": "EU", 
        "type": "airport", 
        "size": "medium", 
        "timezone": "1", 
        "icao": "EDDE", 
        "city": "Erfurt", 
        "country": "Germany"
    }, 
    {
        "iata": "FRA", 
        "longitude": "8.570773", 
        "latitude": "50.050735", 
        "iso": "DE", 
        "name": "Frankfurt Main", 
        "continent": "EU", 
        "type": "airport", 
        "size": "large", 
        "timezone": "1", 
        "icao": "EDDF", 
        "city": "Frankfurt", 
        "country": "Germany"
    },